{"type":"FeatureCollection","features":[{"type":"Feature","properties":{"user_id":"11331418@N00","time":"2012-12-03 00:17:40.0","upload_time":1371101302,"title":"undefined","description":"undefined","tag":" ","url":"http://farm6.staticflickr.com/5444/9031607424_dc50a1a520.jpg"},"geometry":{"type":"Point","coordinates":[-117.152362,32.731484]}},{"type":"Feature","properties":{"user_id":"30699184@N03","time":"2012-12-03 12:47:32.0","upload_time":1370014381,"title":"Flying+Fish+Cafe","description":" ","tag":"disneyboardwalk,disneywedding,flyingfishcafe","url":"http://farm8.staticflickr.com/7333/8902293529_b5623f7cfe.jpg"},"geometry":{"type":"Point","coordinates":[-81.556137,28.367235]}},{"type":"Feature","properties":{"user_id":"35034347371@N01","time":"2012-12-03 16:24:43.0","upload_time":1354590243,"title":"2012-12-03-2562","description":" ","tag":"vancouver","url":"http://farm9.staticflickr.com/8489/8242500489_d78dcfab61.jpg"},"geometry":{"type":"Point","coordinates":[-123.104817,49.269663]}},{"type":"Feature","properties":{"user_id":"35034346886@N01","time":"2012-12-03 20:48:26.0","upload_time":1354596592,"title":"8%3A36pm+Too+tired+to+take+off+my+shoes","description":" ","tag":"8%3A36pm","url":"http://farm9.staticflickr.com/8206/8242721529_e5fdd0efa9.jpg"},"geometry":{"type":"Point","coordinates":[-122.414834,37.778]}},{"type":"Feature","properties":{"user_id":"79755323@N00","time":"2012-12-03 23:13:27.0","upload_time":1354594407,"title":"Wizard+cat%27s+reign+of+terror+begins","description":" ","tag":"hudson,instagram+app,iphoneography,square,square+format","url":"http://farm9.staticflickr.com/8201/8242647039_7aa5e8ca72.jpg"},"geometry":{"type":"Point","coordinates":[-73.943046,40.685424]}},{"type":"Feature","properties":{"user_id":"47317382@N00","time":"2012-12-03 13:07:20.0","upload_time":1354714538,"title":"IMG_3524","description":" ","tag":"beach,mission+bay,san+diego","url":"http://farm9.staticflickr.com/8347/8247408932_4bbc3046f8.jpg"},"geometry":{"type":"Point","coordinates":[-117.252466,32.769883]}},{"type":"Feature","properties":{"user_id":"35034347371@N01","time":"2012-12-03 16:37:50.0","upload_time":1354590155,"title":"2012-12-03-2566","description":" ","tag":"vancouver","url":"http://farm9.staticflickr.com/8479/8242497383_8ab9ceeda4.jpg"},"geometry":{"type":"Point","coordinates":[-123.135864,49.262369]}},{"type":"Feature","properties":{"user_id":"30918136@N00","time":"2012-12-03 20:52:46.0","upload_time":1354777114,"title":"20121203_1109","description":" ","tag":" ","url":"http://farm9.staticflickr.com/8061/8249481766_c60aca866c.jpg"},"geometry":{"type":"Point","coordinates":[-97.830167,30.177666]}},{"type":"Feature","properties":{"user_id":"53632001@N02","time":"2012-12-03 17:32:02.0","upload_time":1354735031,"title":"IMG_3245","description":"Hamilton+JV-C+vs.+Desert+Vista%2C+12-3-12.++At+Hamilton+High+School%2C+Chandler%2C+AZ.++Hamilton+won+3-1.","tag":"chandler%2C+az,chandler+hamilton+high+school,hamilton+boys+soccer,hamilton+high+school,hamilton+huskies,high+school+soccer,soccer","url":"http://farm9.staticflickr.com/8487/8248159484_e1c497b6f4.jpg"},"geometry":{"type":"Point","coordinates":[-111.843566,33.249275]}},{"type":"Feature","properties":{"user_id":"28197691@N00","time":"2012-12-03 20:51:39.0","upload_time":1354597935,"title":"The+entrance+to+heaven%3F+%23frenchlaundry","description":"Posted+via+email+from+%3Ca+href%3D%22http%3A%2F%2Fp.waj3.net%2Fthe-entrance-to-heaven-frenchlaundry%22+rel%3D%22nofollow%22%3Ewajiii%27s+posterous%3C%2Fa%3E","tag":" ","url":"http://farm9.staticflickr.com/8477/8242762547_4b2ba45bfc.jpg"},"geometry":{"type":"Point","coordinates":[-122.365,38.404333]}},{"type":"Feature","properties":{"user_id":"28197691@N00","time":"2012-12-03 21:12:10.0","upload_time":1354598514,"title":"Amuse%3A+gruyere-filled+pastry+fresh+from+the+oven.+%3A%29+%23frenchlaundry","description":"Posted+via+email+from+%3Ca+href%3D%22http%3A%2F%2Fp.waj3.net%2Famuse-gruyere-filled-pastry-fresh-from-the-ov%22+rel%3D%22nofollow%22%3Ewajiii%27s+posterous%3C%2Fa%3E","tag":" ","url":"http://farm9.staticflickr.com/8199/8242780529_dc55afaf8a.jpg"},"geometry":{"type":"Point","coordinates":[-122.365,38.404333]}},{"type":"Feature","properties":{"user_id":"8420521@N04","time":"2012-12-03 11:48:07.0","upload_time":1354556887,"title":"Contribute+Your+Creativity+to+a+Tee","description":" ","tag":"ideabox","url":"http://farm9.staticflickr.com/8065/8241146715_2af295a2a0.jpg"},"geometry":{"type":"Point","coordinates":[-87.796167,41.888833]}},{"type":"Feature","properties":{"user_id":"24283575@N00","time":"2012-12-03 22:48:17.0","upload_time":1355318078,"title":" ","description":" ","tag":" ","url":"http://farm9.staticflickr.com/8497/8266057195_50b479a576.jpg"},"geometry":{"type":"Point","coordinates":[-79.368834,43.644666]}},{"type":"Feature","properties":{"user_id":"83991392@N00","time":"2012-12-03 10:36:59.0","upload_time":1354566957,"title":" ","description":" ","tag":" ","url":"http://farm9.staticflickr.com/8344/8241586637_d8d3628bd8.jpg"},"geometry":{"type":"Point","coordinates":[-97.841,30.146167]}},{"type":"Feature","properties":{"user_id":"37961843@N00","time":"2012-12-03 11:49:55.0","upload_time":1354556995,"title":"He+hasn%27t+caught+one+yet.","description":" ","tag":"instagram+app,iphoneography,lo-fi,square,square+format","url":"http://farm9.staticflickr.com/8061/8242221316_65d78fdc29.jpg"},"geometry":{"type":"Point","coordinates":[-80.032918,26.791095]}},{"type":"Feature","properties":{"user_id":"36791303@N00","time":"2012-12-03 12:53:09.0","upload_time":1354565147,"title":"LEAN1768.JPG","description":"%23LeanStartup+%23Ignite","tag":"california,lean,san+francisco,startup,united+states","url":"http://farm9.staticflickr.com/8484/8241505743_2362be952b.jpg"},"geometry":{"type":"Point","coordinates":[-122.404434,37.782218]}},{"type":"Feature","properties":{"user_id":"51559287@N04","time":"2012-12-03 17:05:06.0","upload_time":1354600065,"title":"IMG_7434","description":" ","tag":"%5Bdarkness%5D,%5Bmountains%5D,%5Bskyforest%5D,%5Bsunset%5D,%5Bsunsets%5D","url":"http://farm9.staticflickr.com/8206/8242826553_67f7301516.jpg"},"geometry":{"type":"Point","coordinates":[-117.141333,34.2315]}},{"type":"Feature","properties":{"user_id":"54289096@N00","time":"2012-12-03 17:25:14.0","upload_time":1390530648,"title":"HDR+merrimon+store+window+fabric.jpg","description":"Sony+Camera","tag":"20121203,asheville,decay,fabric,fabrick,merrimon+avenue,north+carolina,reflection,store,usa,window,wood,zen+sutherland","url":"http://farm3.staticflickr.com/2877/12111071505_9918ab1093.jpg"},"geometry":{"type":"Point","coordinates":[-82.555256,35.615783]}},{"type":"Feature","properties":{"user_id":"23514956@N05","time":"2012-12-03 20:15:37.0","upload_time":1354815301,"title":"Kristen+Schaal","description":" ","tag":"hot+tub,kristen+schaal,sandy+benefit,the+virgil","url":"http://farm9.staticflickr.com/8490/8249488401_dccaaffb96.jpg"},"geometry":{"type":"Point","coordinates":[-118.287101,34.090869]}},{"type":"Feature","properties":{"user_id":"56698634@N00","time":"2012-12-03 20:16:43.0","upload_time":1354651890,"title":"DSC_0372","description":" ","tag":" ","url":"http://farm9.staticflickr.com/8480/8244498659_5642124e8f.jpg"},"geometry":{"type":"Point","coordinates":[-93.395204,35.434798]}},{"type":"Feature","properties":{"user_id":"50733346@N07","time":"2012-12-03 11:21:13.0","upload_time":1354551673,"title":"da+crowd","description":"Canon+AE-1%0A400+ISO%0AFujifilm+Superia+-+400","tag":"ae1,big,canon,concert,crowd,film,jacksonville,ticket","url":"http://farm9.staticflickr.com/8207/8240914673_27900ef9a4.jpg"},"geometry":{"type":"Point","coordinates":[-81.662063,30.333175]}},{"type":"Feature","properties":{"user_id":"22085049@N07","time":"2012-12-03 13:33:44.0","upload_time":1354673276,"title":"Inside+Collider+Experimental+Hall+%28CEH%29+at+SLAC","description":"%3Ca+href%3D%22http%3A%2F%2Fwww-public.slac.stanford.edu%2Fbabar%2F%22+rel%3D%22nofollow%22%3EMore+on+BaBar+experiment%3C%2Fa%3E","tag":"babar,bay+area,best,canon+powershot+s100,canon+s100,ceh,collider+experimental+hall,high+energy,high+energy+physics,lcls,my_best,pep-ii,physics,s100,science,slac,stanford,t2i_best","url":"http://farm9.staticflickr.com/8480/8245268731_efb05456ca.jpg"},"geometry":{"type":"Point","coordinates":[-122.195825,37.418402]}},{"type":"Feature","properties":{"user_id":"86383385@N00","time":"2012-12-03 18:53:31.0","upload_time":1354599578,"title":"D_73828A","description":" ","tag":"basketball,crenshaw,high+school,los+angeles,mossi+johnson,palisades,sports,tournament","url":"http://farm9.staticflickr.com/8482/8242812355_8fb2bf1511.jpg"},"geometry":{"type":"Point","coordinates":[-118.487249,34.011137]}},{"type":"Feature","properties":{"user_id":"16231650@N02","time":"2012-12-03 04:01:07.0","upload_time":1354577767,"title":"Library+-+13771","description":" ","tag":"100in45,downtown+york,photo+walk","url":"http://farm9.staticflickr.com/8479/8243122828_a07e4b0635.jpg"},"geometry":{"type":"Point","coordinates":[-76.728537,39.962484]}},{"type":"Feature","properties":{"user_id":"36791303@N00","time":"2012-12-03 12:38:32.0","upload_time":1354564043,"title":"LEAN1711.JPG","description":"%23LeanStartup+%23Ignite","tag":"california,lean,san+francisco,startup,united+states","url":"http://farm9.staticflickr.com/8481/8242525900_2eab5df999.jpg"},"geometry":{"type":"Point","coordinates":[-122.40438,37.782169]}},{"type":"Feature","properties":{"user_id":"95071949@N00","time":"2012-12-03 14:42:36.0","upload_time":1354768796,"title":"Put+Your+Floaties+On","description":" ","tag":"california,san+diego,sunny+jim+cave,waves","url":"http://farm9.staticflickr.com/8067/8249266150_296671e5cc.jpg"},"geometry":{"type":"Point","coordinates":[-117.269976,32.849713]}},{"type":"Feature","properties":{"user_id":"24313399@N00","time":"2012-12-03 16:14:22.0","upload_time":1355007453,"title":"photo","description":" ","tag":"2012,2013,december,farmers,inlet,ithaca,market,new,outdoors,winter,york","url":"http://farm9.staticflickr.com/8348/8256315230_ebbf1a44d0.jpg"},"geometry":{"type":"Point","coordinates":[-76.510167,42.450833]}},{"type":"Feature","properties":{"user_id":"73449134@N04","time":"2012-12-03 07:23:56.0","upload_time":1354645811,"title":"Quilted+sky+at+sunrise","description":" ","tag":"sunrise","url":"http://farm9.staticflickr.com/8203/8244260463_47fb22520c.jpg"},"geometry":{"type":"Point","coordinates":[-105.935389,36.219323]}},{"type":"Feature","properties":{"user_id":"36791303@N00","time":"2012-12-03 13:38:36.0","upload_time":1354567610,"title":"LEAN2010.JPG","description":"%23LeanStartup+%23Ignite","tag":"california,lean,san+francisco,startup,united+states","url":"http://farm9.staticflickr.com/8201/8241615911_9515debcba.jpg"},"geometry":{"type":"Point","coordinates":[-122.404563,37.782127]}},{"type":"Feature","properties":{"user_id":"44124466908@N01","time":"2012-12-03 14:31:25.0","upload_time":1357777382,"title":"James+Cameron+on+DeepSea+Challenge+at+AGU+mtg+in+San+Francisco","description":" ","tag":"agu,agu12,agu2012,american+geophysics+union,deepsea+challenge,james+cameron,moscone+center,san+francisco","url":"http://farm9.staticflickr.com/8189/8366322110_7d808365a4.jpg"},"geometry":{"type":"Point","coordinates":[-122.400698,37.783858]}},{"type":"Feature","properties":{"user_id":"40358770@N00","time":"2012-12-03 14:57:46.0","upload_time":1354902813,"title":"High-Low+Tech+visits+the+MIT+Glass+Lab","description":" ","tag":"glasslab,mit","url":"http://farm9.staticflickr.com/8350/8253116246_0bb630271f.jpg"},"geometry":{"type":"Point","coordinates":[-71.0885,42.354166]}},{"type":"Feature","properties":{"user_id":"56698634@N00","time":"2012-12-03 20:40:12.0","upload_time":1354651987,"title":"DSC_0384","description":" ","tag":" ","url":"http://farm9.staticflickr.com/8065/8245570716_3f99c65aa1.jpg"},"geometry":{"type":"Point","coordinates":[-93.395204,35.434798]}},{"type":"Feature","properties":{"user_id":"30918136@N00","time":"2012-12-03 20:49:08.0","upload_time":1354776977,"title":"20121203_1102","description":" ","tag":"cyclone,fender,guitar","url":"http://farm9.staticflickr.com/8338/8248412095_775c7726c0.jpg"},"geometry":{"type":"Point","coordinates":[-97.830334,30.177666]}},{"type":"Feature","properties":{"user_id":"13195046@N00","time":"2012-12-03 20:58:02.0","upload_time":1354639486,"title":"Raspberry+PI+at+York+University","description":"Uploaded+from+bfortner%E2%80%99s+iPhone.","tag":" ","url":"http://farm9.staticflickr.com/8198/8244002857_91e844b4e0.jpg"},"geometry":{"type":"Point","coordinates":[-79.4995,43.772]}},{"type":"Feature","properties":{"user_id":"37216036@N05","time":"2012-12-03 12:01:11.0","upload_time":1354553507,"title":"Voter+Intimidation%3F","description":"Seriously+now%2C+how+big+a+problem+was+this+in+the+last+election%3F++IMHO+there+should+be+more+concern+of+voter+fraud+including+ballot+stuffing%2C+multiple+voting+by+the+same+%22voter%22+and+non-citizens+voting.++But+then%2C+that+concern+would+be+%27politically+incorrect%27+in+this+day+and+time.","tag":"flying+horse","url":"http://farm9.staticflickr.com/8059/8240997003_520e5be9a0.jpg"},"geometry":{"type":"Point","coordinates":[-79.177568,35.478684]}},{"type":"Feature","properties":{"user_id":"36521981547@N01","time":"2012-12-03 13:54:11.0","upload_time":1355292647,"title":"Uptown","description":" ","tag":"cameraphone,central+park,iphone,manhattan,midtown,new+york,nyc,panorama,rockefeller+center,top+of+the+rock,united+states,uptown","url":"http://farm9.staticflickr.com/8065/8266548074_59cb10c830.jpg"},"geometry":{"type":"Point","coordinates":[-73.979389,40.758866]}},{"type":"Feature","properties":{"user_id":"41736278@N07","time":"2012-12-03 14:03:18.0","upload_time":1355940308,"title":"stacked+bricks","description":"for+reuse","tag":"back+of+the+yards,chicago,green,industrial,meatpacking,peer,reuse,stockyards,the+plant,vertical+farm,yard","url":"http://farm9.staticflickr.com/8062/8288700826_d4abaedce9.jpg"},"geometry":{"type":"Point","coordinates":[-87.660346,41.810531]}},{"type":"Feature","properties":{"user_id":"36791303@N00","time":"2012-12-03 15:47:06.0","upload_time":1354575813,"title":"LEAN2383.JPG","description":"%23LeanStartup+%23Ignite","tag":"california,lean,san+francisco,startup,united+states","url":"http://farm9.staticflickr.com/8346/8241980781_0bf98dbfb1.jpg"},"geometry":{"type":"Point","coordinates":[-122.404388,37.782138]}},{"type":"Feature","properties":{"user_id":"80884011@N00","time":"2012-12-03 18:06:30.0","upload_time":1354661454,"title":"LAB+sign%2C+illuminated","description":"True%2FFalse+%26hearts%3B+%3Ca+href%3D%22http%3A%2F%2Fbrightcitylights.com%2F%22+rel%3D%22nofollow%22%3EBright+City+Lights%3C%2Fa%3E+and+%3Ca+href%3D%22http%3A%2F%2Fwww.diodeled.com%22+rel%3D%22nofollow%22%3EDiode+LED%3C%2Fa%3E%21","tag":"led,true%2Ffalse","url":"http://farm9.staticflickr.com/8067/8244881421_75d23f9ca2.jpg"},"geometry":{"type":"Point","coordinates":[-92.315336,38.963546]}},{"type":"Feature","properties":{"user_id":"56698634@N00","time":"2012-12-03 18:06:30.0","upload_time":1354651646,"title":"DSC_0346","description":" ","tag":" ","url":"http://farm9.staticflickr.com/8060/8244488801_38ab8398e0.jpg"},"geometry":{"type":"Point","coordinates":[-93.395204,35.434798]}},{"type":"Feature","properties":{"user_id":"12420978@N07","time":"2012-12-03 20:37:35.0","upload_time":1354658908,"title":"DJT_9273","description":" ","tag":"arkansas,batesville,christmas,parade","url":"http://farm9.staticflickr.com/8337/8245856012_124c5b491b.jpg"},"geometry":{"type":"Point","coordinates":[-91.652305,35.77122]}},{"type":"Feature","properties":{"user_id":"90692443@N05","time":"2012-12-03 23:47:33.0","upload_time":1354600053,"title":"white+and+blue","description":"%40+raven%27s+roost","tag":"furniture,instagram,iphone","url":"http://farm9.staticflickr.com/8210/8242826167_da85f3d15f.jpg"},"geometry":{"type":"Point","coordinates":[-86.916446,40.428655]}},{"type":"Feature","properties":{"user_id":"36791303@N00","time":"2012-12-03 17:54:58.0","upload_time":1354584565,"title":"LEAN2915.JPG","description":"%23LeanStartup+%23Ignite","tag":"california,lean,san+francisco,startup,united+states","url":"http://farm9.staticflickr.com/8340/8242296315_db38fa8485.jpg"},"geometry":{"type":"Point","coordinates":[-122.404373,37.78207]}},{"type":"Feature","properties":{"user_id":"12420978@N07","time":"2012-12-03 20:15:38.0","upload_time":1354652981,"title":"DJT_9141","description":" ","tag":"arkansas,batesville,christmas,parade","url":"http://farm9.staticflickr.com/8207/8244545307_b1bbe280df.jpg"},"geometry":{"type":"Point","coordinates":[-91.652305,35.77122]}},{"type":"Feature","properties":{"user_id":"65471798@N00","time":"2012-12-03 10:57:13.0","upload_time":1354563294,"title":"Santa+hat+in+progress.","description":"Waiting+to+see+the+vet+this+morning...","tag":" ","url":"http://farm9.staticflickr.com/8068/8242492480_946d816189.jpg"},"geometry":{"type":"Point","coordinates":[-84.499078,33.883636]}},{"type":"Feature","properties":{"user_id":"36791303@N00","time":"2012-12-03 14:08:06.0","upload_time":1354571591,"title":"LEAN2205.JPG","description":"%23LeanStartup+%23Ignite","tag":"california,lean,san+francisco,startup,united+states","url":"http://farm9.staticflickr.com/8057/8241799751_4f13f98651.jpg"},"geometry":{"type":"Point","coordinates":[-122.404457,37.782249]}},{"type":"Feature","properties":{"user_id":"76345376@N00","time":"2012-12-03 15:46:26.0","upload_time":1354571186,"title":"HipstaPrint","description":" ","tag":"ao+dlx+film,buckhorst+h1+lens,hipstamatic,no+flash","url":"http://farm9.staticflickr.com/8210/8241780701_0c52e62751.jpg"},"geometry":{"type":"Point","coordinates":[-122.336125,47.623956]}},{"type":"Feature","properties":{"user_id":"81834460@N00","time":"2012-12-03 16:20:59.0","upload_time":1354569659,"title":"%23WeightWatchers+360%C2%B0+intro+mtg%21+Also+had+a+great+weigh-in.+%3A%29","description":" ","tag":"instagram+app,iphoneography,square,square+format,x-pro+ii","url":"http://farm9.staticflickr.com/8070/8241706875_c551117f79.jpg"},"geometry":{"type":"Point","coordinates":[-81.429875,40.861529]}},{"type":"Feature","properties":{"user_id":"99923398@N00","time":"2012-12-03 18:37:49.0","upload_time":1354678461,"title":"Moppets+check+out+the+Macy%27s+windows","description":"State+Street.","tag":"chicago,chicagoist,children,christmas,fields,holiday,macys,marshall,watching,windows","url":"http://farm9.staticflickr.com/8482/8246505202_65b883cef3.jpg"},"geometry":{"type":"Point","coordinates":[-87.627596,41.882646]}},{"type":"Feature","properties":{"user_id":"67878600@N00","time":"2012-12-03 06:50:49.0","upload_time":1354782357,"title":"US+Air+Flight+949+Seat+9E+MCI-%3ECLT","description":" ","tag":"airplane,camera+phone,us+air","url":"http://farm9.staticflickr.com/8485/8248524699_d03967a68f.jpg"},"geometry":{"type":"Point","coordinates":[-94.72,39.300833]}},{"type":"Feature","properties":{"user_id":"9133668@N08","time":"2012-12-03 07:05:29.0","upload_time":1354593747,"title":"Dennis+Scholl%2C+Lucas+Leyva","description":"The+2012+winners+of+the+Knight%27s+Arts+Challenge+accepted+their+awards+on+Monday+December+3%2C+2012++at+the+New+World+Center+in+Miami+Beach.+Knight+Foundation+Vice+President+for+Arts+Dennis+Scholl+presents+a+happy+Lucas+Leyva+with+his+award.","tag":"florida,miami+beach","url":"http://farm9.staticflickr.com/8059/8243693180_ed86f29eeb.jpg"},"geometry":{"type":"Point","coordinates":[-80.133461,25.791748]}},{"type":"Feature","properties":{"user_id":"9133668@N08","time":"2012-12-03 07:35:06.0","upload_time":1354706745,"title":"Knight+Arts+Challenge+2012+Winners","description":"Cristina+Barrios.+Consul+General+of+Spain+in+Miami","tag":" ","url":"http://farm9.staticflickr.com/8058/8247202840_01fbfb8914.jpg"},"geometry":{"type":"Point","coordinates":[-80.133461,25.791748]}},{"type":"Feature","properties":{"user_id":"86383385@N00","time":"2012-12-03 19:34:10.0","upload_time":1354605362,"title":"D_73922A","description":" ","tag":"basketball,crenshaw,high+school,los+angeles,palisades,sports,tournament","url":"http://farm9.staticflickr.com/8486/8244038832_bca7900b1f.jpg"},"geometry":{"type":"Point","coordinates":[-118.487249,34.011137]}},{"type":"Feature","properties":{"user_id":"55236839@N00","time":"2012-12-03 21:01:29.0","upload_time":1354645637,"title":"WebInnoMobile","description":" ","tag":"1000faces,bare+tree+media,cambridge,face,faces,glasses,kendall+square,man,people,person,webinno,webinnomobile","url":"http://farm9.staticflickr.com/8203/8244253257_02c27e27ce.jpg"},"geometry":{"type":"Point","coordinates":[-71.075019,42.366994]}},{"type":"Feature","properties":{"user_id":"23514956@N05","time":"2012-12-03 21:17:26.0","upload_time":1354815812,"title":"Andy+Kindler","description":" ","tag":"andy+kindler,hot+tub,sandy+benefit,the+virgil","url":"http://farm9.staticflickr.com/8068/8250576272_b870ed562d.jpg"},"geometry":{"type":"Point","coordinates":[-118.287101,34.090869]}},{"type":"Feature","properties":{"user_id":"24283575@N00","time":"2012-12-03 22:48:07.0","upload_time":1355318008,"title":" ","description":" ","tag":" ","url":"http://farm9.staticflickr.com/8216/8266055207_5fb004950c.jpg"},"geometry":{"type":"Point","coordinates":[-79.368834,43.644666]}},{"type":"Feature","properties":{"user_id":"29166380@N07","time":"2012-12-03 05:57:00.0","upload_time":1354649751,"title":"Farm","description":"Northbound+I-70+in+Maryland.++The+morning+sun+wakes+a+Maryland+farm+with+a+warm+dawn+glow.%0A%0AThis+work+by++%3Ca+href%3D%22http%3A%2F%2Fwww.flickr.com%2Fpeople%2Fgtcooper25%2F%22%3Ecooper+gary%3C%2Fa%3E+is+licensed+under+a+%3Ca+href%3D%22http%3A%2F%2Fcreativecommons.org%2Flicenses%2Fby-nc-nd%2F3.0%2Fdeed.en_US%22+rel%3D%22nofollow%22%3ECreative+Commons+Attribution-NonCommercial-NoDerivs+License%3C%2Fa%3E.++If+you+use+this+photo%2C+please+credit+as+%22photo+by+%3Ca+href%3D%22http%3A%2F%2Fwww.flickr.com%2Fpeople%2Fgtcooper25%2F%22%3Ecooper+gary%3C%2Fa%3E%22+with+a+link-back+to+this+page+on+Flickr.%0A%0A%3Ca+href%3D%22http%3A%2F%2Fwww.gtcooperphotography.com%22+rel%3D%22nofollow%22%3EGT+Cooper+Photography%3C%2Fa%3E","tag":"dawn,farm,field,i-70,maryland,morning,warm","url":"http://farm9.staticflickr.com/8063/8244412937_de41a4e397.jpg"},"geometry":{"type":"Point","coordinates":[-77.515411,39.468004]}},{"type":"Feature","properties":{"user_id":"83991392@N00","time":"2012-12-03 10:35:51.0","upload_time":1354566891,"title":" ","description":" ","tag":" ","url":"http://farm9.staticflickr.com/8347/8241583743_54ac7133dc.jpg"},"geometry":{"type":"Point","coordinates":[-97.841,30.146167]}},{"type":"Feature","properties":{"user_id":"75458615@N05","time":"2012-12-03 14:14:08.0","upload_time":1354672170,"title":"IMG_0160","description":" ","tag":"birds,carmel,carmel+indiana,ducks,geese,indiana,waterfowl","url":"http://farm9.staticflickr.com/8059/8245230071_ea196c11cf.jpg"},"geometry":{"type":"Point","coordinates":[-86.210145,39.9575]}},{"type":"Feature","properties":{"user_id":"44124466908@N01","time":"2012-12-03 14:31:53.0","upload_time":1357777306,"title":"James+Cameron+on+DeepSea+Challenge+at+AGU+mtg+in+San+Francisco","description":" ","tag":"agu,agu12,agu2012,american+geophysics+union,deepsea+challenge,james+cameron,moscone+center,san+francisco","url":"http://farm9.staticflickr.com/8357/8365248529_a7963bf2d9.jpg"},"geometry":{"type":"Point","coordinates":[-122.400698,37.783858]}},{"type":"Feature","properties":{"user_id":"80211431@N00","time":"2012-12-03 19:31:20.0","upload_time":1354584680,"title":"Out+my+window.+%23ssdecember+%23sky+%23tree+%23limb+%23night","description":" ","tag":"hudson,instagram+app,iphoneography,square,square+format","url":"http://farm9.staticflickr.com/8483/8243367978_1beb92d5b7.jpg"},"geometry":{"type":"Point","coordinates":[-88.638902,35.302068]}},{"type":"Feature","properties":{"user_id":"22751315@N05","time":"2012-12-03 13:18:48.0","upload_time":1354569528,"title":"Tank+%23harkertogs","description":" ","tag":"instagram+app,iphoneography,lo-fi,square,square+format","url":"http://farm9.staticflickr.com/8478/8242769416_00d9d94621.jpg"},"geometry":{"type":"Point","coordinates":[-121.970286,37.317196]}},{"type":"Feature","properties":{"user_id":"10069023@N00","time":"2012-12-03 14:49:35.0","upload_time":1354754291,"title":"Camera+Roll-1980","description":" ","tag":" ","url":"http://farm9.staticflickr.com/8197/8247760059_3d40e3116c.jpg"},"geometry":{"type":"Point","coordinates":[-119.698666,34.419166]}},{"type":"Feature","properties":{"user_id":"36791303@N00","time":"2012-12-03 16:37:53.0","upload_time":1354578465,"title":"LEAN2602.JPG","description":"%23LeanStartup+%23Ignite","tag":"california,lean,san+francisco,startup,united+states","url":"http://farm9.staticflickr.com/8206/8242081061_cdb9523c57.jpg"},"geometry":{"type":"Point","coordinates":[-122.404373,37.782184]}},{"type":"Feature","properties":{"user_id":"56698634@N00","time":"2012-12-03 17:05:20.0","upload_time":1354651388,"title":"DSC_0324","description":" ","tag":" ","url":"http://farm9.staticflickr.com/8349/8244478903_a0b68ec1ef.jpg"},"geometry":{"type":"Point","coordinates":[-93.395204,35.434798]}},{"type":"Feature","properties":{"user_id":"30918136@N00","time":"2012-12-03 20:45:36.0","upload_time":1354776840,"title":"20121203_1095","description":" ","tag":"fender,jazzbass","url":"http://farm9.staticflickr.com/8344/8248408975_4456839f3b.jpg"},"geometry":{"type":"Point","coordinates":[-97.830334,30.177666]}},{"type":"Feature","properties":{"user_id":"52015062@N00","time":"2012-12-03 08:47:46.0","upload_time":1354913907,"title":"Scenes+from+New+York","description":" ","tag":"newyorkcity,panorama","url":"http://farm9.staticflickr.com/8340/8253498178_d51c4e2627.jpg"},"geometry":{"type":"Point","coordinates":[-73.989834,40.741]}},{"type":"Feature","properties":{"user_id":"44124466908@N01","time":"2012-12-03 15:20:18.0","upload_time":1357780105,"title":"DeepSea+Challenge+at+AGU+mtg+in+San+Francisco","description":" ","tag":" ","url":"http://farm9.staticflickr.com/8463/8366418372_55bc8b003c.jpg"},"geometry":{"type":"Point","coordinates":[-122.400698,37.783858]}},{"type":"Feature","properties":{"user_id":"48271781@N00","time":"2012-12-03 17:58:30.0","upload_time":1354575510,"title":"I+can+show+you+the+world+Lego+world.","description":" ","tag":"hefe,instagram+app,iphoneography,square,square+format","url":"http://farm9.staticflickr.com/8481/8241968571_6517d2270e.jpg"},"geometry":{"type":"Point","coordinates":[-117.924413,33.808927]}},{"type":"Feature","properties":{"user_id":"83884624@N00","time":"2012-12-03 18:12:20.0","upload_time":1355366595,"title":" ","description":" ","tag":"photo+stream","url":"http://farm9.staticflickr.com/8485/8268864858_7a19980826.jpg"},"geometry":{"type":"Point","coordinates":[-71.202833,42.563167]}},{"type":"Feature","properties":{"user_id":"62986017@N03","time":"2012-12-03 18:25:55.0","upload_time":1354588916,"title":"Crafty.","description":"Bill+and+Jake+working+on+the+KISS+diorama.","tag":"friends","url":"http://farm9.staticflickr.com/8482/8243520772_27021031a5.jpg"},"geometry":{"type":"Point","coordinates":[-122.346,47.659667]}},{"type":"Feature","properties":{"user_id":"12420978@N07","time":"2012-12-03 20:44:25.0","upload_time":1354659357,"title":"DJT_9310","description":" ","tag":"arkansas,batesville,christmas,parade","url":"http://farm9.staticflickr.com/8058/8244805315_d8c2645ec0.jpg"},"geometry":{"type":"Point","coordinates":[-91.652305,35.77122]}},{"type":"Feature","properties":{"user_id":"24283575@N00","time":"2012-12-03 21:28:16.0","upload_time":1354923729,"title":"DSCN1330.JPG","description":" ","tag":"canada,concert,eye-fi,marinasdiamonds,music,ontario,toronto","url":"http://farm9.staticflickr.com/8066/8252740419_a2f3cf40b0.jpg"},"geometry":{"type":"Point","coordinates":[-79.369194,43.645626]}},{"type":"Feature","properties":{"user_id":"9133668@N08","time":"2012-12-03 07:36:26.0","upload_time":1354706687,"title":"Knight+Arts+Challenge+2012+Winners","description":"Laura+Quinlan%2C+Rhythm+Foundatino","tag":" ","url":"http://farm9.staticflickr.com/8487/8247201514_8c06f75f86.jpg"},"geometry":{"type":"Point","coordinates":[-80.133461,25.791748]}},{"type":"Feature","properties":{"user_id":"44124466908@N01","time":"2012-12-03 14:33:45.0","upload_time":1357752200,"title":"James+Cameron+on+DeepSea+Challenge+at+AGU+mtg+in+San+Francisco","description":" ","tag":" ","url":"http://farm9.staticflickr.com/8472/8365285278_e26e78613c.jpg"},"geometry":{"type":"Point","coordinates":[-122.400698,37.783858]}},{"type":"Feature","properties":{"user_id":"47448228@N07","time":"2012-12-03 18:07:51.0","upload_time":1357393884,"title":"DSC_0288","description":" ","tag":"blooms,blossoms,dolores+park,flowers,gardens,golden+gate+park,nature,rachidh,sanfrancisco,sf+streets","url":"http://farm9.staticflickr.com/8233/8349854486_395d814b07.jpg"},"geometry":{"type":"Point","coordinates":[-122.42943,37.758925]}},{"type":"Feature","properties":{"user_id":"12420978@N07","time":"2012-12-03 19:20:57.0","upload_time":1354653658,"title":"DJT_9031","description":" ","tag":"arkansas,batesville,christmas,parade","url":"http://farm9.staticflickr.com/8057/8245641056_1a92e45c85.jpg"},"geometry":{"type":"Point","coordinates":[-91.652305,35.77122]}},{"type":"Feature","properties":{"user_id":"12420978@N07","time":"2012-12-03 20:06:35.0","upload_time":1354653264,"title":"DJT_9088","description":" ","tag":"arkansas,batesville,christmas,parade","url":"http://farm9.staticflickr.com/8204/8245624878_c2ab3c8110.jpg"},"geometry":{"type":"Point","coordinates":[-91.652305,35.77122]}},{"type":"Feature","properties":{"user_id":"8123170@N06","time":"2012-12-03 21:01:28.0","upload_time":1354751110,"title":"Port+of+San+Diego%27s+Top+Green+Chef+Cook-off","description":"Hosted+by+the+Port+of+San+Diego%2C+the+Top+Green+Chef+Cook-off+took+place+on+Monday%2C+Dec.+3%2C+2012+from+5%3A30+p.m.+to+7%3A30+p.m.+at+San+Diego+Gas+and+Electric%E2%80%99s+Energy+Innovation+Center.+%0A%0AChefs+were+critiqued+by+a+panel+of+four+judges+and+had+20+minutes+to+prepare+an+appetizer+and+30+minutes+to+prepare+an+entr%C3%A9e.+All+of+the+mystery+ingredients+contained+organic+vegetables+and+meats+from+local+restaurants.%0A%0APort+of+San+Diego+Board+of+Port+Commissioner+Lee+Burdick+congratulated+the+chefs+after+the+cook-off.+%0A%0AThe+competing+chefs+included%3A%0A%0A%E2%80%A2Executive+Chef+Aron+Schwartz%2C+Marina+Kitchen+at+the+San+Diego+Marriott+Marquis+%26+Marina%3A+Winner+of+Best+Appetizer%0A%0A%E2%80%A2Executive+Chef+Deborah+Scott%2C+C-Level%2FIsland+Prime%3A+Winner+of+Best+Entr%C3%A9e%0A%0A%E2%80%A2Executive+Chef+Steve+Black%2C+Sheraton+San+Diego+Hotel+%26+Marina%3A+Top+Green+Chef%0A%0A%28Photo+Courtesy%3A+Dale+Frost%29","tag":"chopped,cooking,gourmet,green+business+network,port+of+san+diego,sdg%26e,sustainable,top+green+chef+cookoff","url":"http://farm9.staticflickr.com/8345/8248733518_0a87500a61.jpg"},"geometry":{"type":"Point","coordinates":[-117.188458,32.835281]}},{"type":"Feature","properties":{"user_id":"10485077@N06","time":"2012-12-03 22:02:09.0","upload_time":1354833531,"title":"21st+Century+Cooper+Square","description":" ","tag":"manhattan,new+york,new+york+city,ny,nyc","url":"http://farm9.staticflickr.com/8348/8251220328_43b543aedb.jpg"},"geometry":{"type":"Point","coordinates":[-73.990549,40.728394]}},{"type":"Feature","properties":{"user_id":"47327870@N00","time":"2012-12-03 23:18:25.0","upload_time":1356403878,"title":"121203-1340080","description":"Brittany+T.%2C+Evan","tag":"balboa,balswing,calpolyswingkids,dmc-lz8,lindy,lindyhop,lumix,lz8,madonnainn,panasonic,sanluisobispo,slorugcutters,sloswing,swingdancing","url":"http://farm9.staticflickr.com/8364/8306034896_3265ef8175.jpg"},"geometry":{"type":"Point","coordinates":[-120.675544,35.268257]}},{"type":"Feature","properties":{"user_id":"36791303@N00","time":"2012-12-03 12:08:56.0","upload_time":1354562290,"title":"LEAN1647.JPG","description":"%23LeanStartup+%23Ignite","tag":"california,lean,san+francisco,startup,united+states","url":"http://farm9.staticflickr.com/8339/8241379627_b8d2904161.jpg"},"geometry":{"type":"Point","coordinates":[-122.404426,37.782173]}},{"type":"Feature","properties":{"user_id":"44124466908@N01","time":"2012-12-03 13:40:31.0","upload_time":1357781347,"title":"James+Cameron+on+DeepSea+Challenge+at+AGU+mtg+in+San+Francisco","description":" ","tag":"agu,agu12,agu2012,deepsea+challenge,james+cameron,moscone+center,san+francisco","url":"http://farm9.staticflickr.com/8501/8365389687_1109ff372b.jpg"},"geometry":{"type":"Point","coordinates":[-122.400698,37.783858]}},{"type":"Feature","properties":{"user_id":"19279971@N07","time":"2012-12-03 17:51:00.0","upload_time":1360125388,"title":"P1020399","description":"Disney+Magic+Kingdom%0AJim+as+Mad+Hatter","tag":"disney,kingdom,magic","url":"http://farm9.staticflickr.com/8491/8448822409_33573e8e36.jpg"},"geometry":{"type":"Point","coordinates":[-81.584891,28.417909]}},{"type":"Feature","properties":{"user_id":"86383385@N00","time":"2012-12-03 20:05:08.0","upload_time":1354607076,"title":"D_73997A","description":" ","tag":"basketball,birdel+hodge,crenshaw,high+school,los+angeles,palisades,sports,tournament","url":"http://farm9.staticflickr.com/8340/8244082466_cf7e28f793.jpg"},"geometry":{"type":"Point","coordinates":[-118.487249,34.011137]}},{"type":"Feature","properties":{"user_id":"82847947@N00","time":"2012-12-03 22:24:52.0","upload_time":1354992213,"title":"Jordan+Glenn+with+Strings","description":" ","tag":"bristle,festivus,live+music,make-out+room,monday+makeout,san+francisco","url":"http://farm9.staticflickr.com/8362/8255697214_64b484da87.jpg"},"geometry":{"type":"Point","coordinates":[-122.419288,37.755405]}},{"type":"Feature","properties":{"user_id":"47317382@N00","time":"2012-12-03 12:30:52.0","upload_time":1354714352,"title":"IMG_3514","description":" ","tag":"beach,mission+bay,san+diego","url":"http://farm9.staticflickr.com/8344/8247403056_a91960a29d.jpg"},"geometry":{"type":"Point","coordinates":[-117.253078,32.769738]}},{"type":"Feature","properties":{"user_id":"36791303@N00","time":"2012-12-03 13:50:02.0","upload_time":1354568748,"title":"LEAN2107.JPG","description":"%23LeanStartup+%23Ignite","tag":"california,lean,san+francisco,startup,united+states","url":"http://farm9.staticflickr.com/8337/8242734774_ed0634644b.jpg"},"geometry":{"type":"Point","coordinates":[-122.404457,37.782222]}},{"type":"Feature","properties":{"user_id":"12420978@N07","time":"2012-12-03 19:47:45.0","upload_time":1354653514,"title":"DJT_9055","description":" ","tag":"arkansas,batesville,christmas,parade","url":"http://farm9.staticflickr.com/8490/8244567643_649debb091.jpg"},"geometry":{"type":"Point","coordinates":[-91.652305,35.77122]}},{"type":"Feature","properties":{"user_id":"44124466908@N01","time":"2012-12-03 13:48:30.0","upload_time":1357777716,"title":"James+Cameron+on+DeepSea+Challenge+at+AGU+mtg+in+San+Francisco","description":" ","tag":"agu,agu12,agu2012,american+geophysics+union,deepsea+challenge,james+cameron,moscone+center,san+francisco","url":"http://farm9.staticflickr.com/8505/8366333410_cdbebddba7.jpg"},"geometry":{"type":"Point","coordinates":[-122.400698,37.783858]}},{"type":"Feature","properties":{"user_id":"40358770@N00","time":"2012-12-03 14:49:14.0","upload_time":1354902887,"title":"High-Low+Tech+visits+the+MIT+Glass+Lab","description":" ","tag":"glasslab,mit","url":"http://farm9.staticflickr.com/8198/8253118638_c3526fcef6.jpg"},"geometry":{"type":"Point","coordinates":[-71.088167,42.354166]}},{"type":"Feature","properties":{"user_id":"24723658@N07","time":"2012-12-03 16:21:01.0","upload_time":1354580717,"title":"1114+Slope+View","description":" ","tag":"bus,cincinnati,cloudy,hybrid,metro,newflyer,oakley,ohio,sorta,window","url":"http://farm9.staticflickr.com/8068/8243228982_a86714f6db.jpg"},"geometry":{"type":"Point","coordinates":[-84.425489,39.155489]}},{"type":"Feature","properties":{"user_id":"38514062@N03","time":"2012-12-03 10:59:32.0","upload_time":1354903508,"title":"Coastalplain+Honeycombhead+%28Balduina+angustifolia%29","description":"Hal+Scott+Preserve%2C+Orange+County%2C+FL%2C+December+2012.++Species+account%3A++%3Ca+href%3D%22http%3A%2F%2Fefloras.org%2Fflorataxon.aspx%3Fflora_id%3D1%26taxon_id%3D250066204%22+rel%3D%22nofollow%22%3Eefloras.org%2Fflorataxon.aspx%3Fflora_id%3D1%26taxon_id%3D25006...%3C%2Fa%3E","tag":"central+florida,florida+native+wildflowers,hal+scott+preserve,mary+keim","url":"http://farm9.staticflickr.com/8062/8252068217_9ecb993d27.jpg"},"geometry":{"type":"Point","coordinates":[-81.117768,28.491286]}},{"type":"Feature","properties":{"user_id":"58711569@N00","time":"2012-12-03 12:14:15.0","upload_time":1354555471,"title":"2012-12-03-0951","description":"Olha+que+p%C3%A1ssaro+muito+louco+que+encontrei+no+estacionamento.","tag":"miami,trips,usa,viagens","url":"http://farm9.staticflickr.com/8486/8241082911_74ca450ee5.jpg"},"geometry":{"type":"Point","coordinates":[-80.143934,25.956163]}},{"type":"Feature","properties":{"user_id":"28232089@N04","time":"2012-12-03 12:26:22.0","upload_time":1354651283,"title":"Hoosac+Wind+Power+Project","description":"Monday%2C+December+3%2C+2012+%E2%80%93+Governor+Deval+Patrick+joined+state+energy+officials+to+celebrate+the+near+completion+of+the+Hoosac+Wind+Power+Project%2C+the+largest+wind+energy+facility+in+both+Massachusetts+and+Southern+New+England.%0A%0A%3Ca+href%3D%22http%3A%2F%2Fwww.mass.gov%2Fgovernor%2Fpressoffice%2Fpressreleases%2F2012%2F20121203-hoosac-wind-power-project-celebrated.html%22+rel%3D%22nofollow%22%3EView+More+Information%3C%2Fa%3E%0A%0A%28Photo%3A+Eric+Haynes+%2F+Governor%27s+Office%29","tag":"deval+patrick,florida,goverment,governor,hoosac+wind+power+project,massachusetts,massgovernor,patrick,renewable+energy,wind+farm,wind+power","url":"http://farm9.staticflickr.com/8206/8245542380_1681c0161a.jpg"},"geometry":{"type":"Point","coordinates":[-73.010566,42.666599]}},{"type":"Feature","properties":{"user_id":"7272419@N03","time":"2012-12-03 13:26:15.0","upload_time":1354647516,"title":"Brant","description":"Miller%2FKnox+Regional+Shoreline%2C+Contra+Costa+County%2C+California.+December+3%2C+2012.+Checklist%3A+%3Ca+href%3D%22http%3A%2F%2Febird.org%2Febird%2Fview%2Fchecklist%3FsubID%3DS12222394%22+rel%3D%22nofollow%22%3Eebird.org%2Febird%2Fview%2Fchecklist%3FsubID%3DS12222394%3C%2Fa%3E","tag":" ","url":"http://farm9.staticflickr.com/8205/8244324245_b35d286b40.jpg"},"geometry":{"type":"Point","coordinates":[-122.386032,37.914519]}},{"type":"Feature","properties":{"user_id":"72689607@N00","time":"2012-12-03 20:18:06.0","upload_time":1354667773,"title":"Hurricane+Donna+at+Taunton+Yacht+Club+4","description":"Hurricane+Donna+struck+New+England+on+Sept.+12%2C+1960.++Here+is+the+aftermath+of+that+storm+at+the+Taunton+Yacht+Club+in+Dighton%2C+MA.","tag":"1960,argus+model+k,dighton,hurricane+donna,kodachrome,ma,september,taunton+yacht+club","url":"http://farm9.staticflickr.com/8488/8246155818_13e458c3a6.jpg"},"geometry":{"type":"Point","coordinates":[-71.115682,41.814554]}},{"type":"Feature","properties":{"user_id":"47327870@N00","time":"2012-12-03 22:15:01.0","upload_time":1356403992,"title":"121203-1340071","description":"Quay%2C+Lauren","tag":"balboa,balswing,calpolyswingkids,dmc-lz8,lindy,lindyhop,lumix,lz8,madonnainn,panasonic,sanluisobispo,slorugcutters,sloswing,swingdancing","url":"http://farm9.staticflickr.com/8496/8306037876_ecf202e322.jpg"},"geometry":{"type":"Point","coordinates":[-120.675544,35.268257]}},{"type":"Feature","properties":{"user_id":"71380981@N06","time":"2012-12-03 10:48:48.0","upload_time":1354575254,"title":"Ghost+Building","description":"Building+a+Ghost+Foundry+at+the+East+end+of+the+Hawthorne+Bridge.","tag":"bridge,foundry,ghost,hawthorne,oregon,portland","url":"http://farm9.staticflickr.com/8068/8243026350_d2a9309a60.jpg"},"geometry":{"type":"Point","coordinates":[-122.66083,45.512707]}},{"type":"Feature","properties":{"user_id":"74814994@N00","time":"2012-12-03 11:30:23.0","upload_time":1354643688,"title":"Fall+2012+FBI+Research+Presentations","description":"Freshman+Business+Initiative+%28FBI%29+students+at+Texas+A%26M+University%27s+Mays+Business+School+showcase+research+they+conducted+over+the+course+of+the+fall+semester.%0A%0A%5BPhoto%3A+Nicholas+Roznovsky%2FMays+Communications%5D","tag":"fbi,mays+business+school,research,tamu,texas+a%26m","url":"http://farm9.staticflickr.com/8487/8244175297_7d0d399c4b.jpg"},"geometry":{"type":"Point","coordinates":[-96.350795,30.610683]}},{"type":"Feature","properties":{"user_id":"24723658@N07","time":"2012-12-03 16:22:15.0","upload_time":1354580723,"title":"1114+Slide+View+And+Bike+Rack","description":" ","tag":"bus,cincinnati,cloudy,hybrid,metro,newflyer,oakley,ohio,sorta,window","url":"http://farm9.staticflickr.com/8482/8243229178_54c3d921d4.jpg"},"geometry":{"type":"Point","coordinates":[-84.425489,39.155422]}},{"type":"Feature","properties":{"user_id":"23514956@N05","time":"2012-12-03 20:20:32.0","upload_time":1354815441,"title":"Rob+Delaney","description":" ","tag":"hot+tub,rob+delaney,sandy+benefit,the+virgil","url":"http://farm9.staticflickr.com/8479/8249493939_6c25c67c4d.jpg"},"geometry":{"type":"Point","coordinates":[-118.287101,34.090869]}},{"type":"Feature","properties":{"user_id":"36791303@N00","time":"2012-12-03 11:31:51.0","upload_time":1354560370,"title":"LEAN1495.JPG","description":"%23LeanStartup+%23Ignite","tag":"california,lean,san+francisco,startup,united+states","url":"http://farm9.staticflickr.com/8486/8241297413_dcbb88d356.jpg"},"geometry":{"type":"Point","coordinates":[-122.404441,37.782188]}},{"type":"Feature","properties":{"user_id":"56525624@N02","time":"2012-12-03 12:59:45.0","upload_time":1354587976,"title":"Fairway","description":" ","tag":"60d,ann,arbor,canon,golf,sky","url":"http://farm9.staticflickr.com/8482/8243487792_e6ebd720a9.jpg"},"geometry":{"type":"Point","coordinates":[-83.768842,42.216377]}},{"type":"Feature","properties":{"user_id":"57754408@N07","time":"2012-12-03 16:58:35.0","upload_time":1357415933,"title":"F+71","description":"Sea+World+Florida+Dec+2012+-+Clearwater+Beach","tag":" ","url":"http://farm9.staticflickr.com/8357/8351064348_0da5694c22.jpg"},"geometry":{"type":"Point","coordinates":[-81.629696,44.195774]}},{"type":"Feature","properties":{"user_id":"88872477@N00","time":"2012-12-03 00:46:42.0","upload_time":1354524402,"title":"Tannhauser+Gate","description":" ","tag":"brannan,instagram+app,iphoneography,square,square+format","url":"http://farm9.staticflickr.com/8479/8240007543_cbb6afd9a1.jpg"},"geometry":{"type":"Point","coordinates":[-122.441906,37.778717]}},{"type":"Feature","properties":{"user_id":"35034347371@N01","time":"2012-12-03 08:27:13.0","upload_time":1354555815,"title":"2012-12-03-2541","description":" ","tag":"vancouver","url":"http://farm9.staticflickr.com/8061/8242168500_6bf0b24d4f.jpg"},"geometry":{"type":"Point","coordinates":[-123.073631,49.258955]}},{"type":"Feature","properties":{"user_id":"36176156@N00","time":"2012-12-03 12:20:33.0","upload_time":1354566033,"title":"I+think+yesterday%27s+storm+knocked+down+this+tree+limb+in+%23dalycity","description":" ","tag":"instagram+app,iphoneography,square,square+format","url":"http://farm9.staticflickr.com/8341/8241545001_f7151ab9cb.jpg"},"geometry":{"type":"Point","coordinates":[-122.486086,37.713121]}},{"type":"Feature","properties":{"user_id":"44124466908@N01","time":"2012-12-03 14:20:46.0","upload_time":1354701608,"title":"Science+is+sexy+-+Ira+Flatow+of+NPR%27s+Science+Friday+at+AGU+President%27s+Forum","description":" ","tag":" ","url":"http://farm9.staticflickr.com/8207/8247083612_c7c378129e.jpg"},"geometry":{"type":"Point","coordinates":[-122.404067,37.786724]}},{"type":"Feature","properties":{"user_id":"44124466908@N01","time":"2012-12-03 14:30:00.0","upload_time":1354702334,"title":"Ira+Flatow+of+NPR%27s+Science+Friday+at+AGU+President%27s+Forum","description":" ","tag":" ","url":"http://farm9.staticflickr.com/8485/8247099712_a046d8d7f5.jpg"},"geometry":{"type":"Point","coordinates":[-122.404067,37.786724]}},{"type":"Feature","properties":{"user_id":"19279971@N07","time":"2012-12-03 15:15:24.0","upload_time":1360125805,"title":"20121203_151524","description":"Disney+Magic+Kingdom%0AHaunted+Mansion","tag":"disney,kingdom,magic","url":"http://farm9.staticflickr.com/8081/8448834499_fd6d51cfa9.jpg"},"geometry":{"type":"Point","coordinates":[-81.584891,28.417909]}},{"type":"Feature","properties":{"user_id":"52853124@N00","time":"2012-12-03 16:44:16.0","upload_time":1355017788,"title":"IMG_3487","description":" ","tag":" ","url":"http://farm9.staticflickr.com/8497/8256675650_7b797ffcff.jpg"},"geometry":{"type":"Point","coordinates":[-104.552657,50.445274]}},{"type":"Feature","properties":{"user_id":"37718678214@N01","time":"2012-12-03 18:38:53.0","upload_time":1354577933,"title":"More+%23snowflakes+up+to+no+good","description":" ","tag":"instagram+app,iphoneography,rise,square,square+format","url":"http://farm9.staticflickr.com/8067/8243129312_10d9c0ed0e.jpg"},"geometry":{"type":"Point","coordinates":[-74.345473,40.555515]}},{"type":"Feature","properties":{"user_id":"86383385@N00","time":"2012-12-03 19:28:11.0","upload_time":1354604708,"title":"D_73908A","description":" ","tag":"andre+edwards,basketball,crenshaw,high+school,los+angeles,palisades,sports,tournament","url":"http://farm9.staticflickr.com/8488/8242952991_25a4f11d38.jpg"},"geometry":{"type":"Point","coordinates":[-118.487249,34.011137]}},{"type":"Feature","properties":{"user_id":"82847947@N00","time":"2012-12-03 21:31:24.0","upload_time":1354992211,"title":"Bristle+2","description":" ","tag":"bristle,festivus,live+music,make-out+room,monday+makeout,san+francisco","url":"http://farm9.staticflickr.com/8080/8255697142_9510c561c7.jpg"},"geometry":{"type":"Point","coordinates":[-122.419288,37.755405]}},{"type":"Feature","properties":{"user_id":"16231650@N02","time":"2012-12-03 03:39:46.0","upload_time":1354574741,"title":"Library+-+13726","description":" ","tag":"100in45,downtown+york,photo+walk","url":"http://farm9.staticflickr.com/8197/8243005704_3f83eb67f7.jpg"},"geometry":{"type":"Point","coordinates":[-76.728537,39.962484]}},{"type":"Feature","properties":{"user_id":"19363548@N00","time":"2012-12-03 06:50:14.0","upload_time":1354680679,"title":"Klay+Thompson","description":" ","tag":"2012,3,december,golden,nba,oakland,state,warriors","url":"http://farm9.staticflickr.com/8483/8245505401_5381682209.jpg"},"geometry":{"type":"Point","coordinates":[-122.202483,37.750205]}},{"type":"Feature","properties":{"user_id":"15752424@N05","time":"2012-12-03 07:02:24.0","upload_time":1354938894,"title":12.3,"description":" ","tag":" ","url":"http://farm9.staticflickr.com/8496/8254199640_ddfc345ae6.jpg"},"geometry":{"type":"Point","coordinates":[-87.698001,41.926833]}},{"type":"Feature","properties":{"user_id":"74814994@N00","time":"2012-12-03 11:30:16.0","upload_time":1354643697,"title":"Fall+2012+FBI+Research+Presentations","description":"Freshman+Business+Initiative+%28FBI%29+students+at+Texas+A%26M+University%27s+Mays+Business+School+showcase+research+they+conducted+over+the+course+of+the+fall+semester.%0A%0A%5BPhoto%3A+Nicholas+Roznovsky%2FMays+Communications%5D","tag":"fbi,mays+business+school,research,tamu,texas+a%26m","url":"http://farm9.staticflickr.com/8200/8245242738_893b31de60.jpg"},"geometry":{"type":"Point","coordinates":[-96.350795,30.610683]}},{"type":"Feature","properties":{"user_id":"44124466908@N01","time":"2012-12-03 13:48:38.0","upload_time":1357777693,"title":"James+Cameron+on+DeepSea+Challenge+at+AGU+mtg+in+San+Francisco","description":" ","tag":"agu,agu12,agu2012,american+geophysics+union,deepsea+challenge,james+cameron,moscone+center,san+francisco","url":"http://farm9.staticflickr.com/8363/8366332560_545b3932a8.jpg"},"geometry":{"type":"Point","coordinates":[-122.400698,37.783858]}},{"type":"Feature","properties":{"user_id":"44124466908@N01","time":"2012-12-03 14:25:32.0","upload_time":1357777564,"title":"James+Cameron+on+DeepSea+Challenge+at+AGU+mtg+in+San+Francisco","description":" ","tag":"agu,agu12,agu2012,american+geophysics+union,deepsea+challenge,james+cameron,moscone+center,san+francisco","url":"http://farm9.staticflickr.com/8506/8365257075_41a3d696e2.jpg"},"geometry":{"type":"Point","coordinates":[-122.400698,37.783858]}},{"type":"Feature","properties":{"user_id":"24723658@N07","time":"2012-12-03 16:26:58.0","upload_time":1354580687,"title":"1114+Negative+Space+View","description":" ","tag":"bus,cincinnati,cloudy,hybrid,metro,newflyer,oakley,ohio,sorta,window","url":"http://farm9.staticflickr.com/8061/8242159881_3ae58066cf.jpg"},"geometry":{"type":"Point","coordinates":[-84.425489,39.155389]}},{"type":"Feature","properties":{"user_id":"53301297@N00","time":"2012-12-03 19:21:09.0","upload_time":1355084638,"title":"Family+Dollar+and+Rent-a-Center","description":" ","tag":"2012,autumn,cherokee+street,december,early+december+2012,fall,missouri,mo,south+city,south+st.+louis,southside,st.+louis,stl","url":"http://farm9.staticflickr.com/8070/8259060450_e2d0e90514.jpg"},"geometry":{"type":"Point","coordinates":[-90.226428,38.590466]}},{"type":"Feature","properties":{"user_id":"13195046@N00","time":"2012-12-03 20:55:17.0","upload_time":1354639234,"title":"Raspberry+PI+at+York+University","description":"Uploaded+from+bfortner%E2%80%99s+iPhone.","tag":" ","url":"http://farm9.staticflickr.com/8064/8243991887_183636030e.jpg"},"geometry":{"type":"Point","coordinates":[-79.499334,43.772]}},{"type":"Feature","properties":{"user_id":"16231650@N02","time":"2012-12-03 03:56:35.0","upload_time":1354575272,"title":"Library+-+13766","description":" ","tag":"100in45,downtown+york,photo+walk","url":"http://farm9.staticflickr.com/8482/8243027084_0ff2789f9f.jpg"},"geometry":{"type":"Point","coordinates":[-76.728537,39.962484]}},{"type":"Feature","properties":{"user_id":"71041988@N04","time":"2012-12-03 09:00:15.0","upload_time":1354549429,"title":"Bully+Prevention+Workshop","description":"C++staff+work+in+Belton%2C+MO","tag":" ","url":"http://farm9.staticflickr.com/8480/8241884766_5ceb45f3e6.jpg"},"geometry":{"type":"Point","coordinates":[-94.536064,38.809173]}},{"type":"Feature","properties":{"user_id":"83991392@N00","time":"2012-12-03 10:35:38.0","upload_time":1354566866,"title":" ","description":" ","tag":" ","url":"http://farm9.staticflickr.com/8207/8241582601_1003e1228b.jpg"},"geometry":{"type":"Point","coordinates":[-97.841,30.146167]}},{"type":"Feature","properties":{"user_id":"95071949@N00","time":"2012-12-03 15:00:21.0","upload_time":1354768805,"title":"Seals","description":" ","tag":"california,san+diego,seals","url":"http://farm9.staticflickr.com/8197/8248200171_976c9be9d3.jpg"},"geometry":{"type":"Point","coordinates":[-117.276574,32.848289]}},{"type":"Feature","properties":{"user_id":"35034347371@N01","time":"2012-12-03 16:53:53.0","upload_time":1354589895,"title":"2012-12-03-2575","description":" ","tag":"vancouver","url":"http://farm9.staticflickr.com/8068/8243556506_61303aacf2.jpg"},"geometry":{"type":"Point","coordinates":[-123.143206,49.263444]}},{"type":"Feature","properties":{"user_id":"30918136@N00","time":"2012-12-03 20:46:04.0","upload_time":1354776879,"title":"20121203_1097","description":" ","tag":"fender,jazzbass","url":"http://farm9.staticflickr.com/8346/8248409807_fda8c4d37e.jpg"},"geometry":{"type":"Point","coordinates":[-97.830334,30.177666]}},{"type":"Feature","properties":{"user_id":"24283575@N00","time":"2012-12-03 21:30:56.0","upload_time":1354923822,"title":"DSCN1334.JPG","description":" ","tag":"canada,concert,eye-fi,marinasdiamonds,music,ontario,toronto","url":"http://farm9.staticflickr.com/8487/8253814134_16a6bf4093.jpg"},"geometry":{"type":"Point","coordinates":[-79.369194,43.645626]}},{"type":"Feature","properties":{"user_id":"53632001@N02","time":"2012-12-03 23:34:06.0","upload_time":1354731553,"title":"IMG_3036","description":"Hamilton+JV-C+vs.+Desert+Vista%2C+12-3-12.++At+Hamilton+High+School%2C+Chandler%2C+AZ.++Hamilton+won+3-1.","tag":"chandler%2C+az,chandler+hamilton+high+school,hamilton+boys+soccer,hamilton+high+school,hamilton+huskies,high+school+soccer,soccer","url":"http://farm9.staticflickr.com/8058/8246963913_ae4cc99b3d.jpg"},"geometry":{"type":"Point","coordinates":[-111.843566,33.249275]}},{"type":"Feature","properties":{"user_id":"53806810@N06","time":"2012-12-03 02:12:13.0","upload_time":1354581341,"title":"DSC_0268","description":" ","tag":"nature,railroad,track,tracks,train","url":"http://farm9.staticflickr.com/8483/8242182479_62a03e1c80.jpg"},"geometry":{"type":"Point","coordinates":[-75.457191,40.105124]}},{"type":"Feature","properties":{"user_id":"16231650@N02","time":"2012-12-03 03:52:09.0","upload_time":1354575142,"title":"Library+-+13757","description":" ","tag":"100in45,downtown+york,photo+walk","url":"http://farm9.staticflickr.com/8488/8243021838_ccc7298683.jpg"},"geometry":{"type":"Point","coordinates":[-76.728537,39.962484]}},{"type":"Feature","properties":{"user_id":"13978001@N00","time":"2012-12-03 10:15:19.0","upload_time":1354558576,"title":"New+Chair","description":" ","tag":" ","url":"http://farm9.staticflickr.com/8483/8242288594_f7b0cce137.jpg"},"geometry":{"type":"Point","coordinates":[-122.311334,47.620166]}},{"type":"Feature","properties":{"user_id":"44124466908@N01","time":"2012-12-03 12:11:52.0","upload_time":1357781585,"title":"James+Cameron+on+DeepSea+Challenge+at+AGU+mtg+in+San+Francisco","description":" ","tag":"agu,agu12,agu2012,deepsea+challenge,james+cameron,moscone+center,san+francisco","url":"http://farm9.staticflickr.com/8072/8365396603_fb2a4722b5.jpg"},"geometry":{"type":"Point","coordinates":[-122.400698,37.783858]}},{"type":"Feature","properties":{"user_id":"19279971@N07","time":"2012-12-03 15:10:48.0","upload_time":1360125833,"title":"20121203_151048","description":"Disney+Magic+Kingdom%0AHaunted+Mansion","tag":"disney,kingdom,magic","url":"http://farm9.staticflickr.com/8466/8448835357_d44966c6b7.jpg"},"geometry":{"type":"Point","coordinates":[-81.584891,28.417909]}},{"type":"Feature","properties":{"user_id":"36791303@N00","time":"2012-12-03 16:29:55.0","upload_time":1354578061,"title":"LEAN2563.JPG","description":"%23LeanStartup+%23Ignite","tag":"california,lean,san+francisco,startup,united+states","url":"http://farm9.staticflickr.com/8479/8243134320_615eff804a.jpg"},"geometry":{"type":"Point","coordinates":[-122.404373,37.782184]}},{"type":"Feature","properties":{"user_id":"9133668@N08","time":"2012-12-03 17:46:38.0","upload_time":1354582068,"title":"KAC+Miami+2012+Winners","description":"photo+by+Robertson+Adams","tag":"2012+winners,knightarts,miami","url":"http://farm9.staticflickr.com/8061/8242209895_28aa4c979f.jpg"},"geometry":{"type":"Point","coordinates":[-80.133461,25.791748]}},{"type":"Feature","properties":{"user_id":"66252507@N00","time":"2012-12-03 19:49:28.0","upload_time":1354745523,"title":"street+of+the+penguin+lights","description":" ","tag":" ","url":"http://farm9.staticflickr.com/8349/8247480947_82a9ca71e6.jpg"},"geometry":{"type":"Point","coordinates":[-76.53217,38.703094]}},{"type":"Feature","properties":{"user_id":"59972430@N00","time":"2012-12-03 07:34:18.0","upload_time":1354548858,"title":"1914+Locomobile+Model+A+5+Ton+Chassis+1","description":"Photohraphed+at+the+Hays+Antique+Truck+Museum%2C+Woodland%2C+Ca%0A%0APlease+be+aware+that+most+museums+change+their+displays+from+time+to+time.++It%27s+a+good+Idea+to+make+sure+the+exhibit+you+want+to+see+will+be+there+when+you+visit.%0A%0APhotos+in+this+collection+may+not+be+used+for+commercial+purposes.%0A%0A%3Ca+href%3D%22http%3A%2F%2Ftruck-museum.org%2F%22+rel%3D%22nofollow%22%3Etruck-museum.org%2F%3C%2Fa%3E","tag":"1914,5,a,all+types+of+transport,antique,ca,chassis,classic,hays,hays+antique+truck+museum,historic,jack+snell,jacksnell707,locomobile,model,museum,old,oldtimer,paper,ton,truck,trucks,vehicle,veteran,vintage,wall,wallpaper,woodland","url":"http://farm9.staticflickr.com/8478/8240791825_5516c1da29.jpg"},"geometry":{"type":"Point","coordinates":[-121.731948,38.674621]}},{"type":"Feature","properties":{"user_id":"69295994@N00","time":"2012-12-03 08:16:33.0","upload_time":1354557883,"title":"Lytro","description":"%3Ca+href%3D%22https%3A%2F%2Fpictures.lytro.com%2Fjohnbiehler%22+rel%3D%22nofollow%22%3Epictures.lytro.com%2Fjohnbiehler%3C%2Fa%3E","tag":"cameraphone,iphone5,lytro","url":"http://farm9.staticflickr.com/8484/8241190149_127975f2ee.jpg"},"geometry":{"type":"Point","coordinates":[-123.080834,49.307833]}},{"type":"Feature","properties":{"user_id":"38514062@N03","time":"2012-12-03 10:23:23.0","upload_time":1354903369,"title":"Syrphidae+on+Queen-devil+%28Hieracium+gronovii%29","description":"Hal+Scott+Preserve%2C+Orange+County%2C+FL%2C+December+2012.","tag":"central+florida,florida+native+wildflowers,hal+scott+preserve,mary+keim","url":"http://farm9.staticflickr.com/8057/8252063967_75d0be1bee.jpg"},"geometry":{"type":"Point","coordinates":[-81.106417,28.489004]}},{"type":"Feature","properties":{"user_id":"84767053@N00","time":"2012-12-03 14:59:11.0","upload_time":1354866985,"title":"Silver+Lake%3A+Franklin+Hill++%280013%29","description":"December+in+LA%2C+Franklin+Hills+neighborhood","tag":"california,los+angeles","url":"http://farm9.staticflickr.com/8484/8251043293_39315b1fe5.jpg"},"geometry":{"type":"Point","coordinates":[-118.275081,34.100975]}},{"type":"Feature","properties":{"user_id":"36791303@N00","time":"2012-12-03 15:56:23.0","upload_time":1354575910,"title":"LEAN2457.JPG","description":"%23LeanStartup+%23Ignite","tag":"california,lean,san+francisco,startup,united+states","url":"http://farm9.staticflickr.com/8487/8243052382_ff096c37ff.jpg"},"geometry":{"type":"Point","coordinates":[-122.404579,37.781673]}},{"type":"Feature","properties":{"user_id":"93907219@N00","time":"2012-12-03 19:26:53.0","upload_time":1354591613,"title":"Look+at+the+blacks+on+that+true+percula+clown%21+Expensive%21%21%21%21+%40tonyxqchen+%23truepercula+%23clownfish+%23saltwater+%23anemone+%23rosebubble","description":" ","tag":"instagram+app,iphoneography,square,square+format,x-pro+ii","url":"http://farm9.staticflickr.com/8339/8243618538_b769eb43a4.jpg"},"geometry":{"type":"Point","coordinates":[-122.065312,37.634364]}},{"type":"Feature","properties":{"user_id":"8123170@N06","time":"2012-12-03 20:36:59.0","upload_time":1354751209,"title":"Port+of+San+Diego%27s+Top+Green+Chef+Cook-off","description":"Hosted+by+the+Port+of+San+Diego%2C+the+Top+Green+Chef+Cook-off+took+place+on+Monday%2C+Dec.+3%2C+2012+from+5%3A30+p.m.+to+7%3A30+p.m.+at+San+Diego+Gas+and+Electric%E2%80%99s+Energy+Innovation+Center.+%0A%0AChefs+were+critiqued+by+a+panel+of+four+judges+and+had+20+minutes+to+prepare+an+appetizer+and+30+minutes+to+prepare+an+entr%C3%A9e.+All+of+the+mystery+ingredients+contained+organic+vegetables+and+meats+from+local+restaurants.%0A%0AThe+competing+chefs+included%3A%0A%0A%E2%80%A2Executive+Chef+Aron+Schwartz%2C+Marina+Kitchen+at+the+San+Diego+Marriott+Marquis+%26+Marina%3A+Winner+of+Best+Appetizer%0A%0A%E2%80%A2Executive+Chef+Deborah+Scott%2C+C-Level%2FIsland+Prime%3A+Winner+of+Best+Entr%C3%A9e%0A%0A%E2%80%A2Executive+Chef+Steve+Black%2C+Sheraton+San+Diego+Hotel+%26+Marina%3A+Top+Green+Chef%0A%0A%28Photo+Courtesy%3A+Dale+Frost%29","tag":"chopped,cooking,gourmet,green+business+network,port+of+san+diego,sdg%26e,sustainable,top+green+chef+cookoff","url":"http://farm9.staticflickr.com/8487/8247669121_a3c450fa83.jpg"},"geometry":{"type":"Point","coordinates":[-117.188458,32.835281]}},{"type":"Feature","properties":{"user_id":"16231650@N02","time":"2012-12-03 04:23:02.0","upload_time":1354584912,"title":"Library+-+13822","description":" ","tag":"100in45,downtown+york,photo+walk","url":"http://farm9.staticflickr.com/8481/8243375894_76ef44198d.jpg"},"geometry":{"type":"Point","coordinates":[-76.728537,39.962484]}},{"type":"Feature","properties":{"user_id":"19363548@N00","time":"2012-12-03 06:38:28.0","upload_time":1354680704,"title":"DSC_0045","description":" ","tag":"2012,3,december,golden,nba,oakland,state,warriors","url":"http://farm9.staticflickr.com/8480/8246573836_4bbab3fae9.jpg"},"geometry":{"type":"Point","coordinates":[-122.202483,37.750205]}},{"type":"Feature","properties":{"user_id":"48889052497@N01","time":"2012-12-03 14:06:49.0","upload_time":1354561609,"title":"Chez+Le+chef","description":" ","tag":" ","url":"http://farm9.staticflickr.com/8200/8242418946_da143eb1e7.jpg"},"geometry":{"type":"Point","coordinates":[-73.982299,40.742851]}},{"type":"Feature","properties":{"user_id":"70231879@N02","time":"2012-12-03 17:10:06.0","upload_time":1354576206,"title":"My+new+phone%21","description":" ","tag":"amaro,instagram+app,iphoneography,square,square+format","url":"http://farm9.staticflickr.com/8480/8241995255_1f7947c150.jpg"},"geometry":{"type":"Point","coordinates":[-116.992167,32.64139]}},{"type":"Feature","properties":{"user_id":"83884624@N00","time":"2012-12-03 18:13:19.0","upload_time":1354586214,"title":" ","description":" ","tag":"photo+stream","url":"http://farm9.staticflickr.com/8070/8242354821_3913b5e9bf.jpg"},"geometry":{"type":"Point","coordinates":[-71.202833,42.563167]}},{"type":"Feature","properties":{"user_id":"12420978@N07","time":"2012-12-03 19:29:26.0","upload_time":1354653587,"title":"DJT_9044","description":" ","tag":"arkansas,batesville,christmas,parade","url":"http://farm9.staticflickr.com/8345/8245638154_ee33f6950e.jpg"},"geometry":{"type":"Point","coordinates":[-91.652305,35.77122]}},{"type":"Feature","properties":{"user_id":"30918136@N00","time":"2012-12-03 20:51:56.0","upload_time":1354777074,"title":"20121203_1107","description":" ","tag":"cymbals,zildjian","url":"http://farm9.staticflickr.com/8477/8248414503_cd47030f98.jpg"},"geometry":{"type":"Point","coordinates":[-97.830334,30.177666]}},{"type":"Feature","properties":{"user_id":"45971597@N06","time":"2012-12-03 21:10:00.0","upload_time":1356899063,"title":"Le+Moulin","description":" ","tag":" ","url":"http://farm9.staticflickr.com/8492/8327314244_d06db1b4b2.jpg"},"geometry":{"type":"Point","coordinates":[-75.692795,45.428259]}},{"type":"Feature","properties":{"user_id":"81076746@N00","time":"2012-12-03 21:19:16.0","upload_time":1354593736,"title":"Christmas+Lights","description":"Outdoor+tree+in+downtown+Dundas%2C+Ontario.","tag":"christmas","url":"http://farm9.staticflickr.com/8210/8243692778_6c09f75355.jpg"},"geometry":{"type":"Point","coordinates":[-79.957165,43.266346]}},{"type":"Feature","properties":{"user_id":"54087591@N07","time":"2012-12-03 23:45:28.0","upload_time":1354746057,"title":"quarter+snap","description":"%3Ca+href%3D%22http%3A%2F%2Fwww.etsy.com%2Fshop%2FDammelPhotoWorks%22+rel%3D%22nofollow%22%3EPrints%3C%2Fa%3E++%7C+%3Ca+href%3D%22http%3A%2F%2Fabrandnewminneapolis.tumblr.com%22+rel%3D%22nofollow%22%3Etumblr%3C%2Fa%3E+%7C+%3Ca+href%3D%22http%3A%2F%2Fwww.captureminnesota.com%2Fusers%2Fabrandnewminneapolis%22+rel%3D%22nofollow%22%3ECapture+Minnesota%3C%2Fa%3E+%7C+%3Ca+href%3D%22http%3A%2F%2F500px.com%2Fjadammel%22+rel%3D%22nofollow%22%3E500px%3C%2Fa%3E+%7C+%3Ca+href%3D%22http%3A%2F%2Fwww.facebook.com%2FDammelPhotographicWorks%3Fref%3Dhl%22+rel%3D%22nofollow%22%3EFacebook%3C%2Fa%3E%0A%0AOlympus+XA2+%7C+Ilford+HP5%2B+%28shot+%40640%29+%7C+XTOL+%281%3A1%29","tag":"35mm,black+and+white,building,film,ilford,ilford+hp5%2B,olympus+xa2,point,shoot","url":"http://farm9.staticflickr.com/8482/8247498939_a1185da217.jpg"},"geometry":{"type":"Point","coordinates":[-93.26493,44.97903]}},{"type":"Feature","properties":{"user_id":"9133668@N08","time":"2012-12-03 07:32:46.0","upload_time":1354706857,"title":"Knight+Arts+Challenge+2012+Winners","description":"Nicole+Henry","tag":" ","url":"http://farm9.staticflickr.com/8197/8246138005_5c7c489b51.jpg"},"geometry":{"type":"Point","coordinates":[-80.133461,25.791748]}},{"type":"Feature","properties":{"user_id":"41736278@N07","time":"2012-12-03 14:02:22.0","upload_time":1355940364,"title":"yard+construction","description":" ","tag":"anaerobic+digester,back+of+the+yards,chicago,green,industrial,meatpacking,peer,reuse,stockyards,the+plant,vertical+farm,yard","url":"http://farm9.staticflickr.com/8478/8287644981_9ca3469432.jpg"},"geometry":{"type":"Point","coordinates":[-87.660346,41.810531]}},{"type":"Feature","properties":{"user_id":"47448228@N07","time":"2012-12-03 16:01:45.0","upload_time":1361371340,"title":"DSC_0258","description":"Western+Grebe+%7E+Aechmophorus+occidentalis+%7E+Gr%C3%A8be+%C3%A9l%C3%A9gant","tag":"aechmophorus+occidentalis,birds,gr%C3%A8be,gr%C3%A8be+%C3%A9l%C3%A9gant,grebe,nature,rachidh,sanfrancisco,western+grebe","url":"http://farm9.staticflickr.com/8521/8491449289_dc696a8465.jpg"},"geometry":{"type":"Point","coordinates":[-122.390098,37.777431]}},{"type":"Feature","properties":{"user_id":"38331851@N00","time":"2012-12-03 17:26:40.0","upload_time":1354573600,"title":"2+Didus+ineptus","description":" ","tag":"2012,instagram+app,iphoneography,lo-fi,square,square+format","url":"http://farm9.staticflickr.com/8066/8241888617_060b87a3a6.jpg"},"geometry":{"type":"Point","coordinates":[-77.02609,38.891241]}},{"type":"Feature","properties":{"user_id":"8436498@N03","time":"2012-12-03 19:15:43.0","upload_time":1354590943,"title":"Finals+week%3B+shminals+week.+Whiskey+on+the+rocks+in+a+new%2Fold+tea+cup+from+%23stblaize","description":" ","tag":"instagram+app,iphoneography,lord+kelvin,square,square+format","url":"http://farm9.staticflickr.com/8345/8242526047_0d760fa92a.jpg"},"geometry":{"type":"Point","coordinates":[-122.036468,36.958133]}},{"type":"Feature","properties":{"user_id":"18412989@N00","time":"2012-12-03 13:07:28.0","upload_time":1354588330,"title":"7+Weeks+3+Days","description":" ","tag":"baby,canada,fall,mark,ontario,ottawa,portrait","url":"http://farm9.staticflickr.com/8200/8243499976_d020abbb66.jpg"},"geometry":{"type":"Point","coordinates":[-75.736034,45.369334]}},{"type":"Feature","properties":{"user_id":"44124466908@N01","time":"2012-12-03 14:29:48.0","upload_time":1357777412,"title":"James+Cameron+on+DeepSea+Challenge+at+AGU+mtg+in+San+Francisco","description":" ","tag":"agu,agu12,agu2012,american+geophysics+union,deepsea+challenge,james+cameron,moscone+center,san+francisco","url":"http://farm9.staticflickr.com/8323/8365252053_d37b16c1ea.jpg"},"geometry":{"type":"Point","coordinates":[-122.400698,37.783858]}},{"type":"Feature","properties":{"user_id":"36791303@N00","time":"2012-12-03 15:02:56.0","upload_time":1354573405,"title":"LEAN2224.JPG","description":"%23LeanStartup+%23Ignite","tag":"california,lean,san+francisco,startup,united+states","url":"http://farm9.staticflickr.com/8485/8242948616_3959b03d38.jpg"},"geometry":{"type":"Point","coordinates":[-122.404472,37.781898]}},{"type":"Feature","properties":{"user_id":"50178625@N00","time":"2012-12-03 16:01:16.0","upload_time":1364886548,"title":"070_IMG_1508","description":" ","tag":"mexico,puerto+morelos,quintana+roo,riviera+maya,yucatan","url":"http://farm9.staticflickr.com/8382/8613017002_f70cf141f9.jpg"},"geometry":{"type":"Point","coordinates":[-86.875114,20.847591]}},{"type":"Feature","properties":{"user_id":"24013640@N02","time":"2012-12-03 17:09:30.0","upload_time":1354625263,"title":"Firehouse+on+W.+10th","description":" ","tag":" ","url":"http://farm9.staticflickr.com/8489/8244536540_2a8b380ea6.jpg"},"geometry":{"type":"Point","coordinates":[-74.000667,40.735876]}},{"type":"Feature","properties":{"user_id":"40243520@N02","time":"2012-12-03 17:42:07.0","upload_time":1354585327,"title":"The+Beehives+2","description":"Several+of+the+Beehives%2C+named+for+its+obvious+resemblance.+The+striations+were+caused+by+cross-bedding%2C+the+continual+deposition+of+sand+onto+the+shifting+dunes+causing+a+shift+that+covers+lower+layers.++%0AValley+of+Fire+State+Park%2C+Overton%2C+Nevada","tag":"beehives,fire,nevada,overton,park,state,valley","url":"http://farm9.staticflickr.com/8202/8243389868_63fc22389d.jpg"},"geometry":{"type":"Point","coordinates":[-114.547501,36.41352]}},{"type":"Feature","properties":{"user_id":"83884624@N00","time":"2012-12-03 18:10:24.0","upload_time":1355366541,"title":" ","description":" ","tag":"photo+stream","url":"http://farm9.staticflickr.com/8356/8268862986_82a651e172.jpg"},"geometry":{"type":"Point","coordinates":[-71.202833,42.563333]}},{"type":"Feature","properties":{"user_id":"83884624@N00","time":"2012-12-03 18:12:02.0","upload_time":1355366570,"title":" ","description":" ","tag":"photo+stream","url":"http://farm9.staticflickr.com/8207/8268864040_cdeae55bae.jpg"},"geometry":{"type":"Point","coordinates":[-71.202833,42.563167]}},{"type":"Feature","properties":{"user_id":"19279971@N07","time":"2012-12-03 18:15:57.0","upload_time":1360125472,"title":"DSC04915","description":"Disney+Magic+Kingdom%0AMain+Street","tag":"disney,kingdom,magic","url":"http://farm9.staticflickr.com/8491/8449908812_33b5d64e41.jpg"},"geometry":{"type":"Point","coordinates":[-81.584891,28.417909]}},{"type":"Feature","properties":{"user_id":"86383385@N00","time":"2012-12-03 18:49:38.0","upload_time":1354599535,"title":"D_73819A","description":" ","tag":"basketball,crenshaw,high+school,los+angeles,palisades,sports,team,tournament","url":"http://farm9.staticflickr.com/8061/8242810947_e1588e0dc6.jpg"},"geometry":{"type":"Point","coordinates":[-118.487249,34.011137]}},{"type":"Feature","properties":{"user_id":"55252106@N00","time":"2012-12-03 19:16:47.0","upload_time":1354607877,"title":"Leslie+Norris+at+her+Harp+P1200815","description":" ","tag":"christmas,dmc-gh2,harps,harps+of+grace,holiday,music,normandy+church,normandy+united+methodist+church,panasonic","url":"http://farm9.staticflickr.com/8200/8244102130_02465ee7f7.jpg"},"geometry":{"type":"Point","coordinates":[-84.169461,39.645998]}},{"type":"Feature","properties":{"user_id":"23514956@N05","time":"2012-12-03 20:29:19.0","upload_time":1354815431,"title":"Rob+Delaney","description":" ","tag":"hot+tub,rob+delaney,sandy+benefit,the+virgil","url":"http://farm9.staticflickr.com/8347/8249493507_b01281f0bc.jpg"},"geometry":{"type":"Point","coordinates":[-118.287101,34.090869]}},{"type":"Feature","properties":{"user_id":"44124466908@N01","time":"2012-12-03 15:16:39.0","upload_time":1357775985,"title":"James+Cameron+on+DeepSea+Challenge+at+AGU+mtg+in+San+Francisco","description":" ","tag":"agu,agu12,agu2012,american+geophysics+union,deepsea+challenge,james+cameron,moscone+center,san+francisco","url":"http://farm9.staticflickr.com/8377/8366276270_7ed016cbde.jpg"},"geometry":{"type":"Point","coordinates":[-122.400698,37.783858]}},{"type":"Feature","properties":{"user_id":"8559009@N02","time":"2012-12-03 17:13:29.0","upload_time":1354572809,"title":"Ship+it%21+...seen+%40bignerdranch+Galactic+Headquarters","description":" ","tag":"instagram+app,iphoneography,lord+kelvin,square,square+format","url":"http://farm9.staticflickr.com/8487/8242922784_97a2b9a6cc.jpg"},"geometry":{"type":"Point","coordinates":[-84.322117,33.760715]}},{"type":"Feature","properties":{"user_id":"86383385@N00","time":"2012-12-03 19:53:35.0","upload_time":1354607019,"title":"D_73970A","description":" ","tag":"basketball,crenshaw,high+school,los+angeles,mossi+johnson,palisades,sports,tournament","url":"http://farm9.staticflickr.com/8058/8244081012_164b5421bc.jpg"},"geometry":{"type":"Point","coordinates":[-118.487249,34.011137]}},{"type":"Feature","properties":{"user_id":"13195046@N00","time":"2012-12-03 20:52:40.0","upload_time":1354639062,"title":"Raspberry+PI+at+York+University","description":"Uploaded+from+bfortner%E2%80%99s+iPhone.","tag":" ","url":"http://farm9.staticflickr.com/8059/8243984397_9b2029462e.jpg"},"geometry":{"type":"Point","coordinates":[-79.4995,43.772]}},{"type":"Feature","properties":{"user_id":"47217767@N04","time":"2012-12-03 11:35:44.0","upload_time":1359475691,"title":"College-Park-Exxon-10","description":"Photo+credit+to+be+confirmed%3A+%3Ca+href%3D%22http%3A%2F%2Fbuysellga.com%2Flistings%2Fcollege-park-exxon-business-only-or-wproperty%2F%22+rel%3D%22nofollow%22%3Ebuysellga.com%2Flistings%2Fcollege-park-exxon-business-only-o...%3C%2Fa%3E","tag":"%CE%B2%CE%B5%CE%BD%CE%B6%CE%B9%CE%BD%CE%B1%CE%B4%CE%B9%CE%BA%CE%BF,%D0%B0%D0%B7%D1%81,%D9%85%D8%AD%D8%B7%D8%A9,%D9%88%D9%82%D9%88%D8%AF,%E0%B8%9B%E0%B8%B1%E0%B9%89%E0%B8%A1%E0%B8%99%E0%B9%89%E0%B8%B3%E0%B8%A1%E0%B8%B1%E0%B8%99,akaryakit+i%CC%87stasyonu,benz%C3%ADnov%C3%A1,benzinarie,exxon,gas+station,petrol+station,stanice","url":"http://farm9.staticflickr.com/8352/8427505136_75dfd64668.jpg"},"geometry":{"type":"Point","coordinates":[-84.450187,33.629901]}},{"type":"Feature","properties":{"user_id":"91391563@N00","time":"2012-12-03 12:44:28.0","upload_time":1354567468,"title":"Armory","description":" ","tag":"instagram+app,iphoneography,lord+kelvin,square,square+format","url":"http://farm9.staticflickr.com/8484/8241609467_9228b99872.jpg"},"geometry":{"type":"Point","coordinates":[-71.105983,42.38969]}},{"type":"Feature","properties":{"user_id":"36791303@N00","time":"2012-12-03 15:06:27.0","upload_time":1354573485,"title":"LEAN2250.JPG","description":"%23LeanStartup+%23Ignite","tag":"california,lean,san+francisco,startup,united+states","url":"http://farm9.staticflickr.com/8477/8242952126_d8b26c56f3.jpg"},"geometry":{"type":"Point","coordinates":[-122.405662,37.782081]}},{"type":"Feature","properties":{"user_id":"50158065@N00","time":"2012-12-03 17:43:49.0","upload_time":1369090758,"title":"Super+feliz+el+regalo+de+la+hermana+m%C3%A1s+linda+del+mundo+%40rebe15+%3B%29","description":"Super+feliz+el+regalo+de+la+hermana+m%C3%A1s+linda+del+mundo+%40rebe15+%3B%29","tag":" ","url":"http://farm4.staticflickr.com/3724/8758942339_4fe4e1f00c.jpg"},"geometry":{"type":"Point","coordinates":[-87.633445,41.910226]}},{"type":"Feature","properties":{"user_id":"93312010@N06","time":"2012-12-03 23:52:48.0","upload_time":1361082953,"title":"IMG_2109","description":" ","tag":"%23animal,%23greatnature%3B","url":"http://farm9.staticflickr.com/8233/8481445976_9cbc2ed5e8.jpg"},"geometry":{"type":"Point","coordinates":[-83.360625,42.210538]}},{"type":"Feature","properties":{"user_id":"16231650@N02","time":"2012-12-03 03:41:14.0","upload_time":1354574784,"title":"Library+-+13733","description":" ","tag":"100in45,downtown+york,photo+walk","url":"http://farm9.staticflickr.com/8478/8243007366_cb50285231.jpg"},"geometry":{"type":"Point","coordinates":[-76.728537,39.962484]}},{"type":"Feature","properties":{"user_id":"22526649@N03","time":"2012-12-03 07:02:27.0","upload_time":1354536147,"title":"%23activetransportation","description":" ","tag":"hefe,instagram+app,iphoneography,square,square+format","url":"http://farm9.staticflickr.com/8209/8241394250_8456fa0ba0.jpg"},"geometry":{"type":"Point","coordinates":[-77.029352,38.909535]}},{"type":"Feature","properties":{"user_id":"14125170@N02","time":"2012-12-03 08:05:31.0","upload_time":1354631933,"title":"Ask+and+Ye+Shall+Receive%21","description":"The+inner+crumb+of+my+baguettes+from+%22All+You+Knead+is+Bread%22+by+Jane+Mason.+A+long+process+beginning+with+a+pre-dough%2C+a+gazillion+stretch+and+folds+and+a+sticky+shaping%2C+but+so+worth+it+in+the+end%21+These+had+a+whole-wheat+predough+since+we+ran+out+of+AP+but+it+worked+out+-+the+finished+loaves+had+a+tangy%2C+slightly+nutty+flavour%21%0A%0APosted+as+per+request+from+%3Ca+href%3D%22%2Fphotos%2Fwishiwerebaking%2F%22+rel%3D%22nofollow%22%3Ewishiwerebaking%3C%2Fa%3E+%0A%0A%3Ca+href%3D%22http%3A%2F%2Fyummysmells.blogspot.ca%2F2013%2F02%2Fhalf-whole-wheat-baguettes.html%22+rel%3D%22nofollow%22%3EHalf+Whole+Wheat+Baguettes%3C%2Fa%3E","tag":"all+you+knead+is+bread,amazing,baguette,baked,baking,bread,chewy,crispy,crumb,crust,crusty,cutaway,delicious,fragrant,hand+shaped,healthy,jane+mason,juryrigged,part+whole+wheat,predough,simple,slice,sliced,staff+of+life,vegan,vegetarian,yeast,yeast+bread","url":"http://farm9.staticflickr.com/8487/8244765678_c2f894131b.jpg"},"geometry":{"type":"Point","coordinates":[-78.82666,43.930789]}},{"type":"Feature","properties":{"user_id":"36791303@N00","time":"2012-12-03 11:54:08.0","upload_time":1354561281,"title":"LEAN1602.JPG","description":"%23LeanStartup+%23Ignite","tag":"california,lean,san+francisco,startup,united+states","url":"http://farm9.staticflickr.com/8350/8241335849_52d149d7b8.jpg"},"geometry":{"type":"Point","coordinates":[-122.404411,37.782196]}},{"type":"Feature","properties":{"user_id":"36521981547@N01","time":"2012-12-03 12:29:17.0","upload_time":1355095434,"title":"Entrance","description":" ","tag":"art+deco,cameraphone,iphone,manhattan,midtown,new+york,nyc,rockefeller+center,rockefeller+plaza,united+states","url":"http://farm9.staticflickr.com/8219/8258545923_1f18657749.jpg"},"geometry":{"type":"Point","coordinates":[-73.978742,40.758769]}},{"type":"Feature","properties":{"user_id":"47317382@N00","time":"2012-12-03 13:07:42.0","upload_time":1354714557,"title":"Mission+Bay","description":" ","tag":"beach,mission+bay,san+diego","url":"http://farm9.staticflickr.com/8205/8247409610_ef5f2a957f.jpg"},"geometry":{"type":"Point","coordinates":[-117.252466,32.769883]}},{"type":"Feature","properties":{"user_id":"40358770@N00","time":"2012-12-03 14:53:45.0","upload_time":1354902829,"title":"High-Low+Tech+visits+the+MIT+Glass+Lab","description":" ","tag":"glasslab,mit","url":"http://farm9.staticflickr.com/8063/8252047247_dbf63a22e6.jpg"},"geometry":{"type":"Point","coordinates":[-71.088167,42.354166]}},{"type":"Feature","properties":{"user_id":"36791303@N00","time":"2012-12-03 17:59:03.0","upload_time":1354584661,"title":"LEAN2986.JPG","description":"%23LeanStartup+%23Ignite","tag":"california,lean,san+francisco,startup,united+states","url":"http://farm9.staticflickr.com/8065/8242299359_5d21e2f1bc.jpg"},"geometry":{"type":"Point","coordinates":[-122.404373,37.78207]}},{"type":"Feature","properties":{"user_id":"25464516@N07","time":"2012-12-03 20:55:05.0","upload_time":1354653173,"title":"Orb","description":" ","tag":"2012,newyork","url":"http://farm9.staticflickr.com/8342/8244553283_e883d25337.jpg"},"geometry":{"type":"Point","coordinates":[-73.988333,40.741333]}},{"type":"Feature","properties":{"user_id":"23514956@N05","time":"2012-12-03 21:46:37.0","upload_time":1354815527,"title":"Kurt+Braunohler","description":" ","tag":"hot+tub,kurt+braunohler,sandy+benefit,the+virgil","url":"http://farm9.staticflickr.com/8346/8249497439_65ebb8a80d.jpg"},"geometry":{"type":"Point","coordinates":[-118.287101,34.090869]}},{"type":"Feature","properties":{"user_id":"53632001@N02","time":"2012-12-03 23:28:50.0","upload_time":1354732111,"title":"IMG_3008","description":"Hamilton+JV-C+vs.+Desert+Vista%2C+12-3-12.++At+Hamilton+High+School%2C+Chandler%2C+AZ.++Hamilton+won+3-1.","tag":"chandler%2C+az,chandler+hamilton+high+school,hamilton+boys+soccer,hamilton+high+school,hamilton+huskies,high+school+soccer,soccer","url":"http://farm9.staticflickr.com/8341/8246984395_c4114f6c72.jpg"},"geometry":{"type":"Point","coordinates":[-111.843566,33.249275]}},{"type":"Feature","properties":{"user_id":"9265232@N04","time":"2012-12-03 15:50:20.0","upload_time":1354663681,"title":"Old+Milwaukee","description":"A+pair+of+old+Milwaukee+MP15ACs%2C+Soo+1555+and+CP+1403%2C+have+a+car+for+storage+at+the+Ford+plant.","tag":" ","url":"http://farm9.staticflickr.com/8059/8244962371_754235a108.jpg"},"geometry":{"type":"Point","coordinates":[-93.146767,44.910298]}},{"type":"Feature","properties":{"user_id":"28585603@N04","time":"2012-12-03 17:14:56.0","upload_time":1355375355,"title":"oh+Burnaby","description":" ","tag":" ","url":"http://farm9.staticflickr.com/8073/8268068505_5c30875a85.jpg"},"geometry":{"type":"Point","coordinates":[-123.0065,49.227833]}},{"type":"Feature","properties":{"user_id":"69286283@N00","time":"2012-12-03 17:25:50.0","upload_time":1366660704,"title":"The+pacific","description":"7+Likes+on+Instagram","tag":" ","url":"http://farm9.staticflickr.com/8403/8673347804_b8f2ba832a.jpg"},"geometry":{"type":"Point","coordinates":[-122.447502,37.753501]}},{"type":"Feature","properties":{"user_id":"83884624@N00","time":"2012-12-03 18:14:27.0","upload_time":1354586235,"title":" ","description":" ","tag":"photo+stream","url":"http://farm9.staticflickr.com/8065/8242355643_b6fb834ddc.jpg"},"geometry":{"type":"Point","coordinates":[-71.202833,42.563167]}},{"type":"Feature","properties":{"user_id":"47493594@N07","time":"2012-12-03 19:28:03.0","upload_time":1354580883,"title":"No+filter.","description":" ","tag":"instagram+app,iphoneography,square,square+format","url":"http://farm9.staticflickr.com/8063/8243234440_0ed345b788.jpg"},"geometry":{"type":"Point","coordinates":[-77.046389,38.804968]}},{"type":"Feature","properties":{"user_id":"12420978@N07","time":"2012-12-03 20:41:12.0","upload_time":1354658781,"title":"DJT_9295","description":" ","tag":"arkansas,batesville,christmas,parade","url":"http://farm9.staticflickr.com/8339/8244783269_289b55eac5.jpg"},"geometry":{"type":"Point","coordinates":[-91.652305,35.77122]}},{"type":"Feature","properties":{"user_id":"89539854@N00","time":"2012-12-03 21:05:51.0","upload_time":1354668481,"title":"DSC_0010.JPG","description":" ","tag":"district+of+columbia,eye-fi,united+states,washington","url":"http://farm9.staticflickr.com/8202/8246179002_653b717b16.jpg"},"geometry":{"type":"Point","coordinates":[-76.999855,38.884784]}},{"type":"Feature","properties":{"user_id":"16231650@N02","time":"2012-12-03 04:19:09.0","upload_time":1354584378,"title":"Library+-+13805","description":" ","tag":"100in45,downtown+york,photo+walk","url":"http://farm9.staticflickr.com/8488/8242290295_b3cf31b7e7.jpg"},"geometry":{"type":"Point","coordinates":[-76.728537,39.962484]}},{"type":"Feature","properties":{"user_id":"44124466908@N01","time":"2012-12-03 15:01:42.0","upload_time":1357776174,"title":"James+Cameron+on+DeepSea+Challenge+at+AGU+mtg+in+San+Francisco","description":" ","tag":"agu,agu12,agu2012,american+geophysics+union,deepsea+challenge,james+cameron,moscone+center,san+francisco","url":"http://farm9.staticflickr.com/8091/8366282686_9cbabbd9d9.jpg"},"geometry":{"type":"Point","coordinates":[-122.400698,37.783858]}},{"type":"Feature","properties":{"user_id":"35034347371@N01","time":"2012-12-03 16:17:18.0","upload_time":1354586269,"title":"PC031741.JPG","description":" ","tag":"british+columbia,canada,epl1jpeg,olympusepl1,rolandtanglaophoto","url":"http://farm9.staticflickr.com/8484/8242357011_f3884fdacf.jpg"},"geometry":{"type":"Point","coordinates":[-123.105148,49.28157]}},{"type":"Feature","properties":{"user_id":"35034347371@N01","time":"2012-12-03 16:17:43.0","upload_time":1354586983,"title":"PC031743.JPG","description":" ","tag":"british+columbia,canada,epl1jpeg,olympusepl1,rolandtanglaophoto","url":"http://farm9.staticflickr.com/8343/8242384101_943385aef8.jpg"},"geometry":{"type":"Point","coordinates":[-123.105148,49.28157]}},{"type":"Feature","properties":{"user_id":"19279971@N07","time":"2012-12-03 17:05:40.0","upload_time":1360125758,"title":"20121203_170540","description":"Disney+Magic+Kingdom","tag":"disney,kingdom,magic","url":"http://farm9.staticflickr.com/8465/8449916770_2bee049c79.jpg"},"geometry":{"type":"Point","coordinates":[-81.584891,28.417909]}},{"type":"Feature","properties":{"user_id":"36791303@N00","time":"2012-12-03 17:59:02.0","upload_time":1354584651,"title":"LEAN2983.JPG","description":"%23LeanStartup+%23Ignite","tag":"california,lean,san+francisco,startup,united+states","url":"http://farm9.staticflickr.com/8068/8242299069_5f3509db8b.jpg"},"geometry":{"type":"Point","coordinates":[-122.404373,37.78207]}},{"type":"Feature","properties":{"user_id":"13195046@N00","time":"2012-12-03 19:14:04.0","upload_time":1354638985,"title":"Raspberry+PI+at+York+University","description":"Uploaded+from+bfortner%E2%80%99s+iPhone.","tag":" ","url":"http://farm9.staticflickr.com/8068/8243981129_44dceb0e29.jpg"},"geometry":{"type":"Point","coordinates":[-79.499334,43.772]}},{"type":"Feature","properties":{"user_id":"26313124@N07","time":"2012-12-03 07:30:33.0","upload_time":1354548633,"title":" ","description":" ","tag":"instagram+app,iphoneography,square,square+format","url":"http://farm9.staticflickr.com/8485/8241849366_707c8da031.jpg"},"geometry":{"type":"Point","coordinates":[-79.025259,43.844308]}},{"type":"Feature","properties":{"user_id":"7129387@N02","time":"2012-12-03 10:41:43.0","upload_time":1354549405,"title":" ","description":" ","tag":" ","url":"http://farm9.staticflickr.com/8202/8241883778_c937cdc077.jpg"},"geometry":{"type":"Point","coordinates":[-77.4415,37.5255]}},{"type":"Feature","properties":{"user_id":"72775376@N00","time":"2012-12-03 19:55:13.0","upload_time":1354909764,"title":"IMG_6512","description":" ","tag":" ","url":"http://farm9.staticflickr.com/8359/8252278067_c5ae46a527.jpg"},"geometry":{"type":"Point","coordinates":[-109.828262,35.096878]}},{"type":"Feature","properties":{"user_id":"76931093@N00","time":"2012-12-03 13:41:07.0","upload_time":1354676289,"title":"366-12-337","description":"Visit+to+Mounts+Botanical+Garden+with+Mom+and+Dad.+The+butterfly+garden+is+always+cool+to+wander+through.","tag":" ","url":"http://farm9.staticflickr.com/8066/8245369927_e5003a5afa.jpg"},"geometry":{"type":"Point","coordinates":[-80.112167,26.682833]}},{"type":"Feature","properties":{"user_id":"50178625@N00","time":"2012-12-03 15:47:15.0","upload_time":1364886190,"title":"059_IMG_1497","description":" ","tag":"mexico,puerto+morelos,quintana+roo,riviera+maya,yucatan","url":"http://farm9.staticflickr.com/8521/8611900557_be69f6be72.jpg"},"geometry":{"type":"Point","coordinates":[-86.878014,20.846041]}},{"type":"Feature","properties":{"user_id":"52853124@N00","time":"2012-12-03 21:02:25.0","upload_time":1355016866,"title":"IMG_3510","description":" ","tag":" ","url":"http://farm9.staticflickr.com/8080/8255575919_3bb5cefea9.jpg"},"geometry":{"type":"Point","coordinates":[-104.613887,50.447399]}},{"type":"Feature","properties":{"user_id":"30699184@N03","time":"2012-12-03 12:01:15.0","upload_time":1370014428,"title":"Tara+leading+the+procession","description":" ","tag":"disneyboardwalk,disneywedding","url":"http://farm9.staticflickr.com/8115/8902916452_8c3daa178e.jpg"},"geometry":{"type":"Point","coordinates":[-81.556137,28.367235]}},{"type":"Feature","properties":{"user_id":"54876474@N00","time":"2012-12-03 14:23:50.0","upload_time":1374553957,"title":"IMG_2190","description":" ","tag":" ","url":"http://farm4.staticflickr.com/3697/9349453960_fb69618de5.jpg"},"geometry":{"type":"Point","coordinates":[-122.762834,47.065]}},{"type":"Feature","properties":{"user_id":"12659736@N02","time":"2012-12-03 15:48:56.0","upload_time":1354691352,"title":"IMG_2874","description":" ","tag":"arlington,united+states,virginia","url":"http://farm9.staticflickr.com/8062/8245788743_937d2c67b4.jpg"},"geometry":{"type":"Point","coordinates":[-77.1106,38.876]}},{"type":"Feature","properties":{"user_id":"51559287@N04","time":"2012-12-03 17:04:36.0","upload_time":1354598886,"title":"Sunset+at+Skyforest+ll","description":" ","tag":"darkness,lake+arrowhead,mountians,skyforest,sunset,sunsets","url":"http://farm9.staticflickr.com/8206/8243861456_e3665e570e.jpg"},"geometry":{"type":"Point","coordinates":[-117.141333,34.2315]}},{"type":"Feature","properties":{"user_id":"35034347371@N01","time":"2012-12-03 17:08:08.0","upload_time":1354592843,"title":"2012-12-03-2585","description":" ","tag":"vancouver","url":"http://farm9.staticflickr.com/8488/8243661320_fee1ea4734.jpg"},"geometry":{"type":"Point","coordinates":[-123.098845,49.2619]}},{"type":"Feature","properties":{"user_id":"83884624@N00","time":"2012-12-03 18:09:56.0","upload_time":1355366528,"title":" ","description":" ","tag":"photo+stream","url":"http://farm9.staticflickr.com/8200/8267793645_a6b79a02c9.jpg"},"geometry":{"type":"Point","coordinates":[-71.202833,42.563333]}},{"type":"Feature","properties":{"user_id":"86383385@N00","time":"2012-12-03 19:03:17.0","upload_time":1354603156,"title":"D_73864A","description":" ","tag":"basketball,crenshaw,desmond+maxwell,high+school,los+angeles,palisades,sports,tournament,travel+garrett","url":"http://farm9.staticflickr.com/8206/8242913405_3c5677990e.jpg"},"geometry":{"type":"Point","coordinates":[-118.487249,34.011137]}},{"type":"Feature","properties":{"user_id":"12420978@N07","time":"2012-12-03 20:38:01.0","upload_time":1354658895,"title":"DJT_9275","description":" ","tag":"arkansas,batesville,christmas,parade","url":"http://farm9.staticflickr.com/8337/8245855430_4e38f38e25.jpg"},"geometry":{"type":"Point","coordinates":[-91.652305,35.77122]}},{"type":"Feature","properties":{"user_id":"33274213@N07","time":"2012-12-03 21:44:35.0","upload_time":1354589075,"title":"Check+out+%23girlfriends+page+%23supportstance+%40supportstance+all+%23cars+%23porn+%2F+%23bitches+all+the+time+some+%23ruckus+%23ruckusporn+too","description":" ","tag":"instagram+app,iphoneography,square,square+format","url":"http://farm9.staticflickr.com/8199/8242457637_fccd6813c6.jpg"},"geometry":{"type":"Point","coordinates":[-82.741556,28.00054]}},{"type":"Feature","properties":{"user_id":"34325628@N05","time":"2012-12-03 21:46:17.0","upload_time":1355205437,"title":"Neil+Young+%26+Crazy+Horse+at+The+Barclay%27s+Center+in+Brooklyn+-+December+3%2C+2012","description":" ","tag":"album+cover,album+covers,bands,barclay%27s+center,barclays,bk,book+cover,book+covers,brooklyn,chris+goldberg,chrisgoldny,chrisgoldphoto,chrisgoldphotos,classic+rock,colorful,colors,colourful,colours,concerts,consumerist,crazy+horse,for+sale,gothamist,htc,htc1,htcone,legends,music,musicians,neil+young,performances,performers,posters,rock,rock+and+roll","url":"http://farm9.staticflickr.com/8364/8262628555_a9f9d11353.jpg"},"geometry":{"type":"Point","coordinates":[-73.97565,40.682191]}},{"type":"Feature","properties":{"user_id":"39016170@N04","time":"2012-12-03 08:18:24.0","upload_time":1354549710,"title":"337%2F365","description":"Column+Stripes","tag":"black+and+white,columns,texture","url":"http://farm9.staticflickr.com/8346/8241896574_ac976d57b4.jpg"},"geometry":{"type":"Point","coordinates":[-81.370582,40.800133]}},{"type":"Feature","properties":{"user_id":"44124466908@N01","time":"2012-12-03 13:43:30.0","upload_time":1357781001,"title":"James+Cameron+on+DeepSea+Challenge+at+AGU+mtg+in+San+Francisco","description":" ","tag":"agu,agu12,agu2012,deepsea+challenge,james+cameron,moscone+center,san+francisco","url":"http://farm9.staticflickr.com/8371/8365379979_6f55223528.jpg"},"geometry":{"type":"Point","coordinates":[-122.400698,37.783858]}},{"type":"Feature","properties":{"user_id":"8123170@N06","time":"2012-12-03 19:50:39.0","upload_time":1354751161,"title":"Port+of+San+Diego%27s+Top+Green+Chef+Cook-off","description":"Hosted+by+the+Port+of+San+Diego%2C+the+Top+Green+Chef+Cook-off+took+place+on+Monday%2C+Dec.+3%2C+2012+from+5%3A30+p.m.+to+7%3A30+p.m.+at+San+Diego+Gas+and+Electric%E2%80%99s+Energy+Innovation+Center.+%0A%0AChefs+were+critiqued+by+a+panel+of+four+judges+and+had+20+minutes+to+prepare+an+appetizer+and+30+minutes+to+prepare+an+entr%C3%A9e.+All+of+the+mystery+ingredients+contained+organic+vegetables+and+meats+from+local+restaurants.%0A%0AThe+competing+chefs+included%3A%0A%0A%E2%80%A2Executive+Chef+Aron+Schwartz%2C+Marina+Kitchen+at+the+San+Diego+Marriott+Marquis+%26+Marina%3A+Winner+of+Best+Appetizer%0A%0A%E2%80%A2Executive+Chef+Deborah+Scott%2C+C-Level%2FIsland+Prime%3A+Winner+of+Best+Entr%C3%A9e%0A%0A%E2%80%A2Executive+Chef+Steve+Black%2C+Sheraton+San+Diego+Hotel+%26+Marina%3A+Top+Green+Chef%0A%0A%28Photo+Courtesy%3A+Dale+Frost%29","tag":"chopped,cooking,gourmet,green+business+network,port+of+san+diego,sdg%26e,sustainable,top+green+chef+cookoff","url":"http://farm9.staticflickr.com/8479/8247667627_eb09cd3ed0.jpg"},"geometry":{"type":"Point","coordinates":[-117.188458,32.835281]}},{"type":"Feature","properties":{"user_id":"30335727@N00","time":"2012-12-03 17:17:31.0","upload_time":1354679254,"title":"Xmas+%286+of+6%29","description":" ","tag":"christmas,michigan,monroe,tree,xmas","url":"http://farm9.staticflickr.com/8210/8246529788_f715466775.jpg"},"geometry":{"type":"Point","coordinates":[-83.396737,41.915138]}},{"type":"Feature","properties":{"user_id":"27581793@N07","time":"2012-12-03 18:12:56.0","upload_time":1354581478,"title":"Christmas+lights+in+Marion+Square","description":" ","tag":" ","url":"http://farm9.staticflickr.com/8207/8243255176_013bbf609f.jpg"},"geometry":{"type":"Point","coordinates":[-79.935622,32.786846]}},{"type":"Feature","properties":{"user_id":"74616830@N00","time":"2012-12-03 19:44:44.0","upload_time":1354603942,"title":"Amaryllis+starting+to+bloom","description":" ","tag":"amaryllis,flower,green,plant","url":"http://farm9.staticflickr.com/8062/8244001926_316575f03b.jpg"},"geometry":{"type":"Point","coordinates":[-122.365833,47.673333]}},{"type":"Feature","properties":{"user_id":"22111831@N05","time":"2012-12-03 22:54:53.0","upload_time":1354943513,"title":"Gingerbread+cupcakes","description":"Calgary.+%28December+2012%29","tag":"alberta,calgary,can,canada,photowalk,random,urban","url":"http://farm9.staticflickr.com/8198/8254317750_ca7a62478a.jpg"},"geometry":{"type":"Point","coordinates":[-114.086333,51.052667]}},{"type":"Feature","properties":{"user_id":"13785615@N00","time":"2012-12-03 10:53:19.0","upload_time":1354717831,"title":" ","description":" ","tag":" ","url":"http://farm9.staticflickr.com/8068/8246449373_4eb1898d7a.jpg"},"geometry":{"type":"Point","coordinates":[-79.021,43.863167]}},{"type":"Feature","properties":{"user_id":"44124466908@N01","time":"2012-12-03 16:22:02.0","upload_time":1357783853,"title":"John+Grunfeld+NASA+AGU+12+press+conf+on+2020+Mars+rover","description":"John+Grunfeld+NASA+AGU+12+press+conf+on+2020+Mars+rover","tag":" ","url":"http://farm9.staticflickr.com/8361/8365471379_4f489a5053.jpg"},"geometry":{"type":"Point","coordinates":[-122.403509,37.783417]}},{"type":"Feature","properties":{"user_id":"51559287@N04","time":"2012-12-03 17:04:44.0","upload_time":1354600051,"title":"IMG_7433","description":" ","tag":"%5Bdarkness%5D,%5Bmountains%5D,%5Bskyforest%5D,%5Bsunset%5D,%5Bsunsets%5D","url":"http://farm9.staticflickr.com/8068/8243896384_92a5bcca7c.jpg"},"geometry":{"type":"Point","coordinates":[-117.141333,34.2315]}},{"type":"Feature","properties":{"user_id":"26537801@N05","time":"2012-12-03 17:29:35.0","upload_time":1354733982,"title":"The+Descent","description":"The+sun+sets+in+our+wintry+weather.","tag":" ","url":"http://farm9.staticflickr.com/8067/8247053833_ca58c25ff2.jpg"},"geometry":{"type":"Point","coordinates":[-155.790667,19.937333]}},{"type":"Feature","properties":{"user_id":"86383385@N00","time":"2012-12-03 19:14:25.0","upload_time":1354603921,"title":"D_73890A","description":" ","tag":"basketball,birdel+hodge,crenshaw,high+school,los+angeles,palisades,sports,tournament","url":"http://farm9.staticflickr.com/8206/8242932383_4e004626aa.jpg"},"geometry":{"type":"Point","coordinates":[-118.487249,34.011137]}},{"type":"Feature","properties":{"user_id":"86383385@N00","time":"2012-12-03 19:53:27.0","upload_time":1354607003,"title":"D_73968A","description":" ","tag":"basketball,crenshaw,high+school,los+angeles,mossi+johnson,palisades,sports,tournament","url":"http://farm9.staticflickr.com/8198/8244080620_cdff93ec71.jpg"},"geometry":{"type":"Point","coordinates":[-118.487249,34.011137]}},{"type":"Feature","properties":{"user_id":"12420978@N07","time":"2012-12-03 20:38:15.0","upload_time":1354658881,"title":"DJT_9277","description":" ","tag":"arkansas,batesville,christmas,parade","url":"http://farm9.staticflickr.com/8062/8245854888_79f392f878.jpg"},"geometry":{"type":"Point","coordinates":[-91.652305,35.77122]}},{"type":"Feature","properties":{"user_id":"14147702@N07","time":"2012-12-03 01:16:58.0","upload_time":1357338496,"title":"IMG_5780.JPG","description":"%28c%29+Martin+B%C3%A9langer","tag":"canada,divers,quebec","url":"http://farm9.staticflickr.com/8365/8346695045_d464f1a241.jpg"},"geometry":{"type":"Point","coordinates":[-71.227226,46.812419]}},{"type":"Feature","properties":{"user_id":"53806810@N06","time":"2012-12-03 02:40:38.0","upload_time":1354581289,"title":"DSC_0309a","description":" ","tag":"bird,downy,woodpecker","url":"http://farm9.staticflickr.com/8206/8242180707_bdd2ed4f33.jpg"},"geometry":{"type":"Point","coordinates":[-75.457191,40.105124]}},{"type":"Feature","properties":{"user_id":"53301297@N00","time":"2012-12-03 19:29:34.0","upload_time":1355084838,"title":"Pens+on+Cherokee+Street","description":" ","tag":"2012,autumn,cherokee+street,december,early+december+2012,fall,missouri,mo,south+city,south+st.+louis,southside,st.+louis,stl","url":"http://farm9.staticflickr.com/8058/8259070758_5c34c9c591.jpg"},"geometry":{"type":"Point","coordinates":[-90.227434,38.591233]}},{"type":"Feature","properties":{"user_id":"36176156@N00","time":"2012-12-03 04:43:19.0","upload_time":1354546023,"title":"Potato+Bacon+Pizza+%40+Zero+Zero","description":"%23kvpinmybelly+%3A+Yummy+combo+of+mozzarella+cheese+w%2F+rosemary+over+potatoes+and+bacon.+Yum%21%21+%28via+Foodspotting%29","tag":"foodspotting,potato+bacon+pizza,zero+zero","url":"http://farm9.staticflickr.com/8340/8240668211_1902be0d42.jpg"},"geometry":{"type":"Point","coordinates":[-122.402053,37.781354]}},{"type":"Feature","properties":{"user_id":"36791303@N00","time":"2012-12-03 11:28:20.0","upload_time":1354560260,"title":"LEAN1438.JPG","description":"%23LeanStartup+%23Ignite","tag":"california,lean,san+francisco,startup,united+states","url":"http://farm9.staticflickr.com/8210/8242362276_5c824c172c.jpg"},"geometry":{"type":"Point","coordinates":[-122.404464,37.782173]}},{"type":"Feature","properties":{"user_id":"36791303@N00","time":"2012-12-03 11:32:47.0","upload_time":1354560390,"title":"LEAN1514.JPG","description":"%23LeanStartup+%23Ignite","tag":"california,lean,san+francisco,startup,united+states","url":"http://farm9.staticflickr.com/8201/8242367656_4b73cedbb8.jpg"},"geometry":{"type":"Point","coordinates":[-122.404441,37.782188]}},{"type":"Feature","properties":{"user_id":"36521981547@N01","time":"2012-12-03 12:48:48.0","upload_time":1355095415,"title":"Traci","description":" ","tag":"cameraphone,ice+skating,iphone,manhattan,midtown,nyc,rockefeller+center,rockefeller+plaza,traci,tree","url":"http://farm9.staticflickr.com/8209/8259613302_70c7bde629.jpg"},"geometry":{"type":"Point","coordinates":[-73.978439,40.758588]}},{"type":"Feature","properties":{"user_id":"36791303@N00","time":"2012-12-03 16:20:15.0","upload_time":1354577127,"title":"LEAN2551.JPG","description":"%23LeanStartup+%23Ignite","tag":"california,lean,san+francisco,startup,united+states","url":"http://farm9.staticflickr.com/8344/8242031197_08600b1c99.jpg"},"geometry":{"type":"Point","coordinates":[-122.40448,37.782207]}},